[{"lat":"48.8202066","lon":"-3.4755109","url":"https://guide.michelin.com//fr/fr/bretagne/perros-guirec/restaurant/la-maison-de-marie","name":"la maison de marie","address":"24 rue gabriel-vicaire, perros-guirec, 22700, france","cuisine":"moderne"},{"lat":"43.4980729","lon":"1.4097754","url":"https://guide.michelin.com//fr/fr/occitanie/lacroix-falgarde/restaurant/le-bellevue8982","name":"le bellevue","address":"1 avenue des pyrénées, lacroix-falgarde, 31120, france","cuisine":"classique"},{"lat":"48.8197582","lon":"-3.4361377","url":"https://guide.michelin.com//fr/fr/bretagne/perros-guirec/restaurant/le-manoir-du-sphinx","name":"le manoir du sphinx","address":"67 chemin de la messe, perros-guirec, 22700, france","cuisine":"moderne"},{"lat":"42.7184266","lon":"1.8395359","url":"https://guide.michelin.com//fr/fr/occitanie/ax-les-thermes/restaurant/le-chalet123050","name":"le chalet","address":"4 avenue durandeau, ax-les-thermes, 09110, france","cuisine":"moderne"},{"lat":"48.8213714","lon":"7.281237","url":"https://guide.michelin.com//fr/fr/grand-est/graufthal/restaurant/au-vieux-moulin","name":"au vieux moulin","address":"7 rue du vieux-moulin, graufthal, 67320, france","cuisine":"moderne"},{"lat":"49.84617","lon":"2.27053","url":"https://guide.michelin.com//fr/fr/hauts-de-france/dury/restaurant/la-bonne-auberge221","name":"la bonne auberge","address":"63 route nationale, dury, 80480, france","cuisine":"moderne"},{"lat":"49.0316104","lon":"7.7106808","url":"https://guide.michelin.com//fr/fr/grand-est/niedersteinbach/restaurant/au-cheval-blanc12113","name":"au cheval blanc","address":"11 rue principale, niedersteinbach, 67510, france","cuisine":"traditionnelle"},{"lat":"48.0953736","lon":"7.304982","url":"https://guide.michelin.com//fr/fr/grand-est/ingersheim/restaurant/la-taverne-alsacienne","name":"la taverne alsacienne","address":"99 rue de la république, ingersheim, 68040, france","cuisine":"traditionnelle"},{"lat":"47.371487","lon":"-1.016588","url":"https://guide.michelin.com//fr/fr/pays-de-la-loire/varades/restaurant/la-closerie-des-roses","name":"la closerie des roses","address":"455 la haute-meilleraie, varades, 44370, france","cuisine":"classique"},{"lat":"48.6441076","lon":"2.3279829","url":"https://guide.michelin.com//fr/fr/ile-de-france/sainte-genevive-des-bois/restaurant/la-table-d-antan","name":"la table d'antan","address":"38 avenue de la grande-charmille-du-parc, sainte-geneviève-des-bois, 91700, france","cuisine":"du sud-ouest"},{"lat":"47.08076","lon":"-2.03654","url":"https://guide.michelin.com//fr/fr/pays-de-la-loire/la-bernerie-en-retz/restaurant/l-artimon","name":"l'artimon","address":"17 rue jean-du-plessis, la bernerie-en-retz, 44760, france","cuisine":"traditionnelle"},{"lat":"43.588977","lon":"6.3032316","url":"https://guide.michelin.com//fr/fr/provence-alpes-cote-dazur/tourtour/restaurant/la-table63544","name":"la table","address":"1 traverse de jas, les ribas, tourtour, 83690, france","cuisine":"moderne"},{"lat":"45.0745399","lon":"4.8610574","url":"https://guide.michelin.com//fr/fr/auvergne-rhone-alpes/tain-l-hermitage/restaurant/maison-gambert","name":"maison gambert","address":"2 rue de la petite-pirelle, tain-l'hermitage, 26600, france","cuisine":"moderne"},{"lat":"47.1669407","lon":"0.2401172","url":"https://guide.michelin.com//fr/fr/centre-val-de-loire/chinon/restaurant/au-chapeau-rouge","name":"au chapeau rouge","address":"49 place du général-de-gaulle, chinon, 37500, france","cuisine":"du terroir"},{"lat":"48.0982151","lon":"-4.2083201","url":"https://guide.michelin.com//fr/fr/bretagne/locronan/restaurant/comptoir-des-voyageurs","name":"comptoir des voyageurs","address":"place de l'église, locronan, 29180, france","cuisine":"moderne"},{"lat":"47.120132","lon":"0.4253755","url":"https://guide.michelin.com//fr/fr/centre-val-de-loire/l-le-bouchard/restaurant/auberge-de-l-ile","name":"auberge de l'île","address":"3 place bouchard, l'île-bouchard, 37220, france","cuisine":"moderne"},{"lat":"46.298183","lon":"5.387954","url":"https://guide.michelin.com//fr/fr/auvergne-rhone-alpes/treffort/restaurant/voyages-des-sens","name":"voyages des sens","address":"33 rue principale, treffort, 01370, france","cuisine":"moderne"},{"lat":"46.3904152","lon":"4.6250769","url":"https://guide.michelin.com//fr/fr/bourgogne-franche-comte/sainte-ccile/restaurant/l-embellie8305","name":"l'embellie","address":"le bourg, sainte-cécile, 71250, france","cuisine":"moderne"},{"lat":"46.3190731","lon":"2.9562153","url":"https://guide.michelin.com//fr/fr/auvergne-rhone-alpes/montmarault/restaurant/hotel-de-france5012","name":"hôtel de france","address":"1 rue marx-dormoy, montmarault, 03390, france","cuisine":"moderne"},{"lat":"43.35605","lon":"-1.5633099","url":"https://guide.michelin.com//fr/fr/nouvelle-aquitaine/saint-pe-sur-nivelle/restaurant/ttotta","name":"ttotta","address":"espace ibarrondoan, saint-pée-sur-nivelle, 64310, france","cuisine":"moderne"},{"lat":"45.59301","lon":"6.45704","url":"https://guide.michelin.com//fr/fr/auvergne-rhone-alpes/cevins/restaurant/la-fleur-de-sel121851","name":"la fleur de sel","address":"15 route du portelin, cevins, 73730, france","cuisine":"moderne"},{"lat":"48.8106504","lon":"7.7919128","url":"https://guide.michelin.com//fr/fr/grand-est/haguenau/restaurant/le-jardin3646","name":"le jardin","address":"16 rue de la redoute, haguenau, 67500, france","cuisine":"moderne"},{"lat":"47.2563803","lon":"-0.0824101","url":"https://guide.michelin.com//fr/fr/pays-de-la-loire/saumur/restaurant/l-escargot","name":"l'escargot","address":"30 rue du maréchal-leclerc, saumur, 49400, france","cuisine":"traditionnelle"},{"lat":"43.1262102","lon":"6.0991484","url":"https://guide.michelin.com//fr/fr/provence-alpes-cote-dazur/hyres/restaurant/la-colombe","name":"la colombe","address":"663 route de toulon, hyères, 83400, france","cuisine":"traditionnelle"},{"lat":"48.8596272","lon":"2.2992616","url":"https://guide.michelin.com//fr/fr/ile-de-france/paris/restaurant/au-bon-accueil6011","name":"au bon accueil","address":"14 rue de monttessuy, paris, 75007, france","cuisine":"moderne"},{"lat":"49.640044","lon":"-1.6214966","url":"https://guide.michelin.com//fr/fr/normandie/cherbourg-en-cotentin/restaurant/le-vauban","name":"le vauban","address":"22 quai caligny, cherbourg-en-cotentin, 50100, france","cuisine":"moderne"},{"lat":"43.7647665","lon":"1.7592759","url":"https://guide.michelin.com//fr/fr/occitanie/saint-lieux-ls-lavaur/restaurant/le-colvert63526","name":"le colvert","address":"8 rue d'en boyer, saint-lieux-lès-lavaur, 81500, france","cuisine":"moderne"},{"lat":"48.551617","lon":"-0.508416","url":"https://guide.michelin.com//fr/fr/normandie/juvigny-sous-andaine/restaurant/au-bon-accueil3941","name":"au bon accueil","address":"23 place st-michel, juvigny-sous-andaine, 61140, france","cuisine":"créative"},{"lat":"49.4925652","lon":"0.1009955","url":"https://guide.michelin.com//fr/fr/normandie/le-havre/restaurant/le-bouche-a-oreille531147","name":"le bouche à oreille","address":"19 rue paul-doumer, le havre, 76600, france","cuisine":"moderne"},{"lat":"43.9245387","lon":"2.148724","url":"https://guide.michelin.com//fr/fr/occitanie/albi/restaurant/l-epicurien66531","name":"l'épicurien","address":"42 place jean-jaurès, albi, 81000, france","cuisine":"moderne"},{"lat":"45.1856667","lon":"0.7208709","url":"https://guide.michelin.com//fr/fr/nouvelle-aquitaine/prigueux/restaurant/l-atelier1185075","name":"l'atelier","address":"2 rue voltaire, périgueux, 24000, france","cuisine":"moderne"},{"lat":"43.5501","lon":"5.03234","url":"https://guide.michelin.com//fr/fr/provence-alpes-cote-dazur/saint-chamas/restaurant/le-rabelais","name":"le rabelais","address":"8 rue auguste-fabre, saint-chamas, 13250, france","cuisine":"moderne"},{"lat":"45.6931279","lon":"-0.3256814","url":"https://guide.michelin.com//fr/fr/nouvelle-aquitaine/cognac/restaurant/la-maison","name":"la maison","address":"1 rue du 14-juillet, cognac, 16100, france","cuisine":"moderne"},{"lat":"48.07132","lon":"2.13455","url":"https://guide.michelin.com//fr/fr/centre-val-de-loire/chilleurs-aux-bois/restaurant/le-lancelot","name":"le lancelot","address":"12 rue des déportés, chilleurs-aux-bois, 45170, france","cuisine":"moderne"},{"lat":"48.8795129","lon":"2.3521222","url":"https://guide.michelin.com//fr/fr/ile-de-france/paris/restaurant/chez-michel","name":"chez michel","address":"10 rue de belzunce, paris, 75010, france","cuisine":"traditionnelle"},{"lat":"47.5058772","lon":"6.8644355","url":"https://guide.michelin.com//fr/fr/bourgogne-franche-comte/tupes/restaurant/au-fil-des-saisons","name":"au fil des saisons","address":"3 rue de la libération, étupes, 25460, france","cuisine":"moderne"},{"lat":"47.45812","lon":"-0.6579","url":"https://guide.michelin.com//fr/fr/pays-de-la-loire/saint-jean-de-linires/restaurant/auberge-de-la-roche","name":"auberge de la roche","address":"10 route nationale 23, saint-jean-de-linières, 49070, france","cuisine":"moderne"},{"lat":"48.8680983","lon":"2.3685454","url":"https://guide.michelin.com//fr/fr/ile-de-france/paris/restaurant/auberge-pyrenees-cevennes","name":"auberge pyrénées cévennes","address":"106 rue de la folie-méricourt, paris, 75011, france","cuisine":"traditionnelle"},{"lat":"49.5816199","lon":"1.0907513","url":"https://guide.michelin.com//fr/fr/normandie/clres/restaurant/auberge-du-moulin","name":"auberge du moulin","address":"36 rue des moulins-du-tot, clères, 76690, france","cuisine":"moderne"},{"lat":"44.20324","lon":"4.94576","url":"https://guide.michelin.com//fr/fr/provence-alpes-cote-dazur/cairanne/restaurant/coteaux-et-fourchettes","name":"coteaux et fourchettes","address":"route de violès, cairanne, 84290, france","cuisine":"moderne"},{"lat":"43.696531","lon":"7.2730239","url":"https://guide.michelin.com//fr/fr/provence-alpes-cote-dazur/nice/restaurant/la-merenda","name":"la merenda","address":"4 rue raoul-bosio, nice, 06000, france","cuisine":"provençale"},{"lat":"45.9251353","lon":"6.8736882","url":"https://guide.michelin.com//fr/fr/auvergne-rhone-alpes/chamonix-mont-blanc/restaurant/la-maison-carrier","name":"la maison carrier","address":"44 route du bouchet, chamonix-mont-blanc, 74400, france","cuisine":"régionale"},{"lat":"48.8751739","lon":"2.3165102","url":"https://guide.michelin.com//fr/fr/ile-de-france/paris/restaurant/pomze","name":"pomze","address":"109 boulevard haussmann, paris, 75008, france","cuisine":"moderne"},{"lat":"45.070235","lon":"4.8362144","url":"https://guide.michelin.com//fr/fr/auvergne-rhone-alpes/tain-l-hermitage/restaurant/le-quai","name":"le quai","address":"2 offres","cuisine":"traditionnelle"},{"lat":"47.518524","lon":"-2.3025745","url":"https://guide.michelin.com//fr/fr/bretagne/la-roche-bernard/restaurant/auberge-des-deux-magots","name":"auberge des deux magots","address":"1 place du bouffay, la roche-bernard, 56130, france","cuisine":"moderne"},{"lat":"47.123817","lon":"6.200216","url":"https://guide.michelin.com//fr/fr/bourgogne-franche-comte/saules/restaurant/la-griotte","name":"la griotte","address":"3 rue des cerisiers, saules, 25580, france","cuisine":"traditionnelle"},{"lat":"49.4221162","lon":"0.2323132","url":"https://guide.michelin.com//fr/fr/normandie/honfleur/restaurant/la-fleur-de-sel3731","name":"la fleur de sel","address":"17 rue haute, honfleur, 14600, france","cuisine":"moderne"},{"lat":"48.8194552","lon":"7.2803398","url":"https://guide.michelin.com//fr/fr/grand-est/graufthal/restaurant/au-cheval-blanc6937","name":"au cheval blanc","address":"3 offres","cuisine":"traditionnelle"},{"lat":"43.1202188","lon":"6.1304632","url":"https://guide.michelin.com//fr/fr/provence-alpes-cote-dazur/hyres/restaurant/l-arum","name":"l'arum","address":"21 avenue joseph-clotis, hyères, 83400, france","cuisine":"moderne"},{"lat":"43.6045314","lon":"2.2431667","url":"https://guide.michelin.com//fr/fr/occitanie/castres/restaurant/la-part-des-anges454760","name":"la part des anges","address":"7 rue d'empare, castres, 81100, france","cuisine":"moderne"},{"lat":"48.0977773","lon":"-4.2114968","url":"https://guide.michelin.com//fr/fr/bretagne/locronan/restaurant/ar-maen-hir","name":"ar maen hir","address":"15 bis rue du prieuré, locronan, 29180, france","cuisine":"moderne"},{"lat":"47.63581","lon":"6.85777","url":"https://guide.michelin.com//fr/fr/bourgogne-franche-comte/belfort/restaurant/les-capucins","name":"les capucins","address":"20 faubourg de montbéliard, belfort, 90000, france","cuisine":"moderne"},{"lat":"49.1846061","lon":"-0.3648739","url":"https://guide.michelin.com//fr/fr/normandie/caen/restaurant/le-dauphin10467","name":"le dauphin","address":"29 rue gemare, caen, 14000, france","cuisine":"moderne"},{"lat":"50.9569","lon":"1.84954","url":"https://guide.michelin.com//fr/fr/hauts-de-france/calais/restaurant/histoire-ancienne","name":"histoire ancienne","address":"20 rue royale, calais, 62100, france","cuisine":"traditionnelle"},{"lat":"45.945435","lon":"4.725821","url":"https://guide.michelin.com//fr/fr/auvergne-rhone-alpes/anse/restaurant/au-colombier","name":"au colombier","address":"126 allée colombier, anse, 69480, france","cuisine":"moderne"},{"lat":"43.0891229","lon":"2.6196977","url":"https://guide.michelin.com//fr/fr/occitanie/lagrasse/restaurant/le-bastion","name":"le bastion","address":"50 boulevard de la promenade, lagrasse, 11220, france","cuisine":"moderne"},{"lat":"47.7486709","lon":"-3.3578633","url":"https://guide.michelin.com//fr/fr/bretagne/lorient/restaurant/le-tire-bouchon","name":"le tire bouchon","address":"45 rue jules-le-grand, lorient, 56100, france","cuisine":"traditionnelle"}]