[{"lat":"46.3703254","lon":"6.3256417","url":"https://guide.michelin.com//fr/fr/auvergne-rhone-alpes/yvoire/restaurant/les-jardins-du-leman","name":"les jardins du léman","address":"grande-rue, yvoire, 74140, france","cuisine":"moderne"},{"lat":"43.9347151","lon":"2.1458041","url":"https://guide.michelin.com//fr/fr/occitanie/albi/restaurant/la-table-du-sommelier145","name":"la table du sommelier","address":"20 rue porta, albi, 81000, france","cuisine":"moderne"},{"lat":"48.8202066","lon":"-3.4755109","url":"https://guide.michelin.com//fr/fr/bretagne/perros-guirec/restaurant/la-maison-de-marie","name":"la maison de marie","address":"24 rue gabriel-vicaire, perros-guirec, 22700, france","cuisine":"moderne"},{"lat":"45.212543","lon":"0.74974","url":"https://guide.michelin.com//fr/fr/nouvelle-aquitaine/champcevinel/restaurant/la-table-du-pouyaud","name":"la table du pouyaud","address":"57 route de paris, champcevinel, 24750, france","cuisine":"moderne"},{"lat":"45.1039749","lon":"4.6186956","url":"https://guide.michelin.com//fr/fr/auvergne-rhone-alpes/vaudevant/restaurant/la-recre","name":"la récré","address":"70 route de satillieu, vaudevant, 07410, france","cuisine":"moderne"},{"lat":"44.8402101","lon":"-0.5840778","url":"https://guide.michelin.com//fr/fr/nouvelle-aquitaine/bordeaux/restaurant/racines-by-daniel-gallacher","name":"racines by daniel gallacher","address":"59 rue georges-bonnac, bordeaux, 33000, france","cuisine":"créative"},{"lat":"45.1910583","lon":"5.7303723","url":"https://guide.michelin.com//fr/fr/auvergne-rhone-alpes/grenoble/restaurant/le-rousseau","name":"le rousseau","address":"3 rue jean-jacques-rousseau, grenoble, 38000, france","cuisine":"actuelle"},{"lat":"44.9407156","lon":"1.0074809","url":"https://guide.michelin.com//fr/fr/nouvelle-aquitaine/les-eyzies-de-tayac/restaurant/le-bistro-des-glycines","name":"le bistro des glycines","address":"4 avenue de laugerie, les eyzies-de-tayac, 24620, france","cuisine":"moderne"},{"lat":"45.7800103","lon":"3.0215755","url":"https://guide.michelin.com//fr/fr/auvergne-rhone-alpes/orcines/restaurant/auberge-de-la-baraque","name":"auberge de la baraque","address":"2 route de bordeaux, orcines, 63870, france","cuisine":"moderne"},{"lat":"50.6234966","lon":"3.0375482","url":"https://guide.michelin.com//fr/fr/hauts-de-france/lille/restaurant/solange","name":"solange","address":"59 rue d'isly, lille, 59000, france","cuisine":"moderne"},{"lat":"47.3237399","lon":"5.0394574","url":"https://guide.michelin.com//fr/fr/bourgogne-franche-comte/dijon/restaurant/dz-envies","name":"dz'envies","address":"12 rue odebert, dijon, 21000, france","cuisine":"moderne"},{"lat":"45.76954","lon":"3.19723","url":"https://guide.michelin.com//fr/fr/auvergne-rhone-alpes/lempdes/restaurant/b2k6","name":"b2k6","address":"6 rue du caire, lempdes, 63370, france","cuisine":"moderne"},{"lat":"50.72517","lon":"1.61436","url":"https://guide.michelin.com//fr/fr/hauts-de-france/boulogne-sur-mer/restaurant/l-ilot-vert","name":"l'îlot vert","address":"34-36 rue de lille, boulogne-sur-mer, 62200, france","cuisine":"moderne"},{"lat":"45.4715051","lon":"6.4556705","url":"https://guide.michelin.com//fr/fr/auvergne-rhone-alpes/valmorel/restaurant/l-oxygene","name":"l'oxygène","address":"la charmette, valmorel, 73260, france","cuisine":"moderne"},{"lat":"47.43512","lon":"-2.09001","url":"https://guide.michelin.com//fr/fr/pays-de-la-loire/pontchteau/restaurant/le-11-bistrot-gourmand","name":"le 11 bistrot gourmand","address":"11 rue de verdun, pontchâteau, 44160, france","cuisine":"moderne"},{"lat":"49.03451","lon":"-1.5247198","url":"https://guide.michelin.com//fr/fr/normandie/heugueville-sur-sienne/restaurant/athome","name":"athome","address":"16 rue de la sienne, heugueville-sur-sienne, 50200, france","cuisine":"moderne"},{"lat":"48.8321771","lon":"2.3275939","url":"https://guide.michelin.com//fr/fr/ile-de-france/paris/restaurant/aux-plumes","name":"aux plumes","address":"45 rue boulard, paris, 75014, france","cuisine":"moderne"},{"lat":"45.62774","lon":"5.30722","url":"https://guide.michelin.com//fr/fr/auvergne-rhone-alpes/saint-savin-auvergne-rhone-alpes/restaurant/les-3-faisans","name":"les 3 faisans","address":"330 rue des auberges, saint-savin, 38300, france","cuisine":"moderne"},{"lat":"49.42869","lon":"2.08609","url":"https://guide.michelin.com//fr/fr/hauts-de-france/beauvais/restaurant/la-baie-d-halong","name":"la baie d'halong","address":"49 rue de la madeleine, beauvais, 60000, france","cuisine":"vietnamienne"},{"lat":"43.6388111","lon":"6.973045","url":"https://guide.michelin.com//fr/fr/provence-alpes-cote-dazur/grasse/restaurant/lougolin","name":"lougolin","address":"381 route de plascassier, grasse, 06130, france","cuisine":"moderne"},{"lat":"43.419617","lon":"-1.6059891","url":"https://guide.michelin.com//fr/fr/nouvelle-aquitaine/guthary/restaurant/briket-bistrot","name":"briket' bistrot","address":"rue de l'église, guéthary, 64210, france","cuisine":"moderne"},{"lat":"44.3589694","lon":"2.5564393","url":"https://guide.michelin.com//fr/fr/occitanie/rodez/restaurant/les-jardins-de-l-acropolis","name":"les jardins de l'acropolis","address":"rue d'athènes, à bourran, rodez, 12000, france","cuisine":"moderne"},{"lat":"46.2876771","lon":"2.6612119","url":"https://guide.michelin.com//fr/fr/auvergne-rhone-alpes/nris-les-bains/restaurant/cote-toques","name":"côté toqués","address":"21 rue hoche, néris-les-bains, 03310, france","cuisine":"moderne"},{"lat":"44.74215","lon":"1.191888","url":"https://guide.michelin.com//fr/fr/nouvelle-aquitaine/daglan/restaurant/le-petit-paris","name":"le petit paris","address":"au bourg, daglan, 24250, france","cuisine":"moderne"},{"lat":"48.67078","lon":"-1.85169","url":"https://guide.michelin.com//fr/fr/bretagne/cancale/restaurant/l-ormeau","name":"l'ormeau","address":"4 quai thomas, cancale, 35260, france","cuisine":"poissons et fruits de mer"},{"lat":"47.09044","lon":"2.40156","url":"https://guide.michelin.com//fr/fr/centre-val-de-loire/bourges/restaurant/le-beauvoir","name":"le beauvoir","address":"1 avenue marx-dormoy, bourges, 18000, france","cuisine":"traditionnelle"},{"lat":"48.65858","lon":"-1.86114","url":"https://guide.michelin.com//fr/fr/bretagne/cancale/restaurant/cote-mer","name":"côté mer","address":"4 rue ernest-lamort, cancale, 35260, france","cuisine":"traditionnelle"},{"lat":"46.24887","lon":"5.12659","url":"https://guide.michelin.com//fr/fr/auvergne-rhone-alpes/polliat/restaurant/tejerina-hotel-de-la-place","name":"téjérina-hôtel de la place","address":"51 place de la mairie, polliat, 01310, france","cuisine":"traditionnelle"},{"lat":"45.39894","lon":"6.57439","url":"https://guide.michelin.com//fr/fr/auvergne-rhone-alpes/mribel/restaurant/le-cepe","name":"le cèpe","address":"immeuble les merisiers, méribel, 73550, france","cuisine":"traditionnelle"},{"lat":"46.9076462","lon":"4.7533235","url":"https://guide.michelin.com//fr/fr/bourgogne-franche-comte/chagny/restaurant/pierre-jean","name":"pierre & jean","address":"2 rue de la poste, chagny, 71150, france","cuisine":"moderne"},{"lat":"49.771397","lon":"4.719695","url":"https://guide.michelin.com//fr/fr/grand-est/charleville-mzires/restaurant/la-table-d-arthur-r","name":"la table d'arthur r","address":"9 rue pierre bérégovoy, charleville-mézières, 08000, france","cuisine":"moderne"},{"lat":"44.229465","lon":"5.317594","url":"https://guide.michelin.com//fr/fr/auvergne-rhone-alpes/plaisians/restaurant/auberge-de-la-clue","name":"auberge de la clue","address":"place de l'église, plaisians, 26170, france","cuisine":"traditionnelle"},{"lat":"45.7618","lon":"4.85042","url":"https://guide.michelin.com//fr/fr/auvergne-rhone-alpes/lyon/restaurant/la-table-101","name":"la table 101","address":"101 rue moncey, lyon, 69003, france","cuisine":"moderne"},{"lat":"47.6958401","lon":"3.9956149","url":"https://guide.michelin.com//fr/fr/bourgogne-franche-comte/noyers/restaurant/les-millesimes","name":"les millésimes","address":"14 place de l'hôtel-de-ville, noyers, 89310, france","cuisine":"traditionnelle"},{"lat":"49.240746","lon":"4.0511127","url":"https://guide.michelin.com//fr/fr/grand-est/reims/restaurant/le-jardin-les-crayeres","name":"le jardin les crayères","address":"7 avenue du général-giraud, reims, 51100, france","cuisine":"traditionnelle"},{"lat":"48.8740537","lon":"2.3478903","url":"https://guide.michelin.com//fr/fr/ile-de-france/paris/restaurant/richer","name":"richer","address":"2 rue richer, paris, 75009, france","cuisine":"moderne"},{"lat":"47.51021","lon":"0.90831","url":"https://guide.michelin.com//fr/fr/centre-val-de-loire/neuill-le-lierre/restaurant/auberge-de-la-brenne","name":"auberge de la brenne","address":"19 rue de la république, neuillé-le-lierre, 37380, france","cuisine":"traditionnelle"},{"lat":"47.3196734","lon":"5.0410635","url":"https://guide.michelin.com//fr/fr/bourgogne-franche-comte/dijon/restaurant/so","name":"so","address":"15 rue  amiral-roussin, dijon, 21000, france","cuisine":"moderne"},{"lat":"48.6338","lon":"-2.05359","url":"https://guide.michelin.com//fr/fr/bretagne/dinard/restaurant/au-bouchon-breton","name":"au bouchon breton","address":"20 rue du maréchal-leclerc, dinard, 35800, france","cuisine":"traditionnelle"},{"lat":"46.1634661","lon":"5.8015098","url":"https://guide.michelin.com//fr/fr/auvergne-rhone-alpes/montanges/restaurant/l-auberge-du-pont-des-pierres","name":"l'auberge du pont des pierres","address":"754 rue paul-de-vanssay, montanges, 01200, france","cuisine":"moderne"},{"lat":"45.89731","lon":"6.1228","url":"https://guide.michelin.com//fr/fr/auvergne-rhone-alpes/annecy/restaurant/minami400465","name":"minami","address":"19 faubourg sainte-claire, annecy, 74000, france","cuisine":"japonaise"},{"lat":"48.1386391","lon":"7.2625154","url":"https://guide.michelin.com//fr/fr/grand-est/kaysersberg/restaurant/la-vieille-forge3949","name":"la vieille forge","address":"1 rue des écoles, kaysersberg, 68240, france","cuisine":"moderne"},{"lat":"48.69053","lon":"-3.845596","url":"https://guide.michelin.com//fr/fr/bretagne/plougasnou/restaurant/la-maison-de-kerdies","name":"la maison de kerdiès","address":"5 route de perherel, lieu-dit st-samson, plougasnou, 29630, france","cuisine":"traditionnelle"},{"lat":"45.77402","lon":"4.80747","url":"https://guide.michelin.com//fr/fr/auvergne-rhone-alpes/lyon/restaurant/racine900057","name":"racine","address":"1 rue du chapeau-rouge, impasse charavay, lyon, 69009, france","cuisine":"moderne"},{"lat":"43.2396948","lon":"6.5901868","url":"https://guide.michelin.com//fr/fr/provence-alpes-cote-dazur/gassin/restaurant/la-verdoyante","name":"la verdoyante","address":"866 chemin vicinal coste brigade, gassin, 83580, france","cuisine":"traditionnelle"},{"lat":"47.54915","lon":"1.54094","url":"https://guide.michelin.com//fr/fr/centre-val-de-loire/bracieux/restaurant/le-rendez-vous-des-gourmets","name":"le rendez-vous des gourmets","address":"20 rue roger-brun, bracieux, 41250, france","cuisine":"traditionnelle"},{"lat":"48.1697044","lon":"7.1938717","url":"https://guide.michelin.com//fr/fr/grand-est/frland/restaurant/restaurant-du-musee","name":"restaurant du musée","address":"2 rue de la rochette, fréland, 68240, france","cuisine":"moderne"},{"lat":"48.7379433","lon":"-3.455017","url":"https://guide.michelin.com//fr/fr/bretagne/lannion/restaurant/le-brelevenez","name":"le brélévenez","address":"1 rue stang-ar-béo, lannion, 22300, france","cuisine":"moderne"},{"lat":"43.4980729","lon":"1.4097754","url":"https://guide.michelin.com//fr/fr/occitanie/lacroix-falgarde/restaurant/le-bellevue8982","name":"le bellevue","address":"1 avenue des pyrénées, lacroix-falgarde, 31120, france","cuisine":"classique"},{"lat":"44.25164","lon":"4.88359","url":"https://guide.michelin.com//fr/fr/provence-alpes-cote-dazur/sainte-ccile-les-vignes/restaurant/campagne-vignes-et-gourmandises","name":"campagne, vignes et gourmandises","address":"629 chemin des terres, sainte-cécile-les-vignes, 84290, france","cuisine":"moderne"},{"lat":"42.5843613","lon":"2.4422211","url":"https://guide.michelin.com//fr/fr/occitanie/clara/restaurant/les-loges-du-jardin-d-aymeric","name":"les loges du jardin d'aymeric","address":"7 rue du canigou, clara, 66500, france","cuisine":"traditionnelle"},{"lat":"45.2691515","lon":"1.7725451","url":"https://guide.michelin.com//fr/fr/nouvelle-aquitaine/tulle/restaurant/les-7","name":"les 7","address":"32 quai baluze, tulle, 19000, france","cuisine":"moderne"},{"lat":"48.8804197","lon":"2.2962333","url":"https://guide.michelin.com//fr/fr/ile-de-france/paris/restaurant/le-petit-verdot-du-17eme","name":"le petit verdot du 17ème","address":"9 rue fourcroy, paris, 75017, france","cuisine":"traditionnelle"},{"lat":"47.4196761","lon":"1.4285821","url":"https://guide.michelin.com//fr/fr/centre-val-de-loire/contres/restaurant/la-botte-d-asperges","name":"la botte d'asperges","address":"15 rue pierre-henri mauger, contres, 41700, france","cuisine":"moderne"},{"lat":"48.8197582","lon":"-3.4361377","url":"https://guide.michelin.com//fr/fr/bretagne/perros-guirec/restaurant/le-manoir-du-sphinx","name":"le manoir du sphinx","address":"67 chemin de la messe, perros-guirec, 22700, france","cuisine":"moderne"},{"lat":"42.7184266","lon":"1.8395359","url":"https://guide.michelin.com//fr/fr/occitanie/ax-les-thermes/restaurant/le-chalet123050","name":"le chalet","address":"4 avenue durandeau, ax-les-thermes, 09110, france","cuisine":"moderne"},{"lat":"44.110107","lon":"5.107162","url":"https://guide.michelin.com//fr/fr/provence-alpes-cote-dazur/caromb/restaurant/le-6-a-table","name":"le 6 à table","address":"6 place nationale, caromb, 84330, france","cuisine":"moderne"},{"lat":"45.8600546","lon":"6.1964034","url":"https://guide.michelin.com//fr/fr/auvergne-rhone-alpes/menthon-saint-bernard/restaurant/le-confidentiel","name":"le confidentiel","address":"24 route des moulins, menthon-saint-bernard, 74290, france","cuisine":"moderne"},{"lat":"43.29141","lon":"5.373775","url":"https://guide.michelin.com//fr/fr/provence-alpes-cote-dazur/marseille/restaurant/madame-jeanne","name":"madame jeanne","address":"84 rue de grignan, marseille, 13001, france","cuisine":"méditerranéenne"},{"lat":"43.72842","lon":"1.8232433","url":"https://guide.michelin.com//fr/fr/occitanie/ambres/restaurant/chez-john","name":"chez john","address":"465 route de gaillac, ambres, 81500, france","cuisine":"moderne"},{"lat":"44.4200011","lon":"4.9031134","url":"https://guide.michelin.com//fr/fr/auvergne-rhone-alpes/grignan/restaurant/le-bistro-chapouton","name":"le bistro chapouton","address":"200 route de montélimar, grignan, 26230, france","cuisine":"traditionnelle"},{"lat":"46.889416","lon":"-1.8336135","url":"https://guide.michelin.com//fr/fr/pays-de-la-loire/la-garnache/restaurant/le-petit-st-thomas","name":"le petit st-thomas","address":"25 rue de lattre-de-tassigny, la garnache, 85710, france","cuisine":"moderne"},{"lat":"45.8964","lon":"6.12048","url":"https://guide.michelin.com//fr/fr/auvergne-rhone-alpes/annecy/restaurant/le-denti","name":"le denti","address":"25 bis avenue de loverchy, annecy, 74000, france","cuisine":"moderne"},{"lat":"42.4043058","lon":"2.4801504","url":"https://guide.michelin.com//fr/fr/occitanie/prats-de-mollo-la-preste/restaurant/bellavista","name":"bellavista","address":"place du foiral, prats-de-mollo-la-preste, 66230, france","cuisine":"moderne"},{"lat":"48.42262","lon":"7.18412","url":"https://guide.michelin.com//fr/fr/grand-est/fouday/restaurant/julien","name":"julien","address":"route de strasbourg, fouday, 67130, france","cuisine":"traditionnelle"},{"lat":"48.8213714","lon":"7.281237","url":"https://guide.michelin.com//fr/fr/grand-est/graufthal/restaurant/au-vieux-moulin","name":"au vieux moulin","address":"7 rue du vieux-moulin, graufthal, 67320, france","cuisine":"moderne"},{"lat":"48.8467763","lon":"2.3101451","url":"https://guide.michelin.com//fr/fr/ile-de-france/paris/restaurant/l-antre-amis","name":"l'antre amis","address":"9 rue bouchut, paris, 75015, france","cuisine":"moderne"},{"lat":"47.905","lon":"7.1568596","url":"https://guide.michelin.com//fr/fr/grand-est/rimbach-prs-guebwiller/restaurant/l-ao-l-aigle-d-or","name":"l'ao - l'aigle d'or","address":"5 rue principale, rimbach-près-guebwiller, 68500, france","cuisine":"moderne"},{"lat":"48.1385782","lon":"7.2655026","url":"https://guide.michelin.com//fr/fr/grand-est/kaysersberg/restaurant/winstub-du-chambard","name":"winstub du chambard","address":"9-13 rue du général-de-gaulle, kaysersberg, 68240, france","cuisine":"alsacienne"},{"lat":"45.88904","lon":"6.7000265","url":"https://guide.michelin.com//fr/fr/auvergne-rhone-alpes/saint-gervais-les-bains/restaurant/la-ferme-de-cupelin","name":"la ferme de cupelin","address":"198 route du château, saint-gervais-les-bains, 74170, france","cuisine":"régionale"},{"lat":"49.84617","lon":"2.27053","url":"https://guide.michelin.com//fr/fr/hauts-de-france/dury/restaurant/la-bonne-auberge221","name":"la bonne auberge","address":"63 route nationale, dury, 80480, france","cuisine":"moderne"},{"lat":"49.1487923","lon":"0.901294","url":"https://guide.michelin.com//fr/fr/normandie/le-neubourg/restaurant/la-longere","name":"la longère","address":"1c rue du docteur-couderc, le neubourg, 27110, france","cuisine":"moderne"},{"lat":"43.5874794","lon":"7.0554528","url":"https://guide.michelin.com//fr/fr/provence-alpes-cote-dazur/vallauris/restaurant/les-dilettants","name":"les dilettants","address":"1193 chemin de saint-bernard, vallauris, 06220, france","cuisine":"moderne"},{"lat":"46.1462668","lon":"1.5131499","url":"https://guide.michelin.com//fr/fr/nouvelle-aquitaine/fursac/restaurant/nougier","name":"nougier","address":"2 place de l'église, fursac, 23290, france","cuisine":"moderne"},{"lat":"48.89025","lon":"2.333","url":"https://guide.michelin.com//fr/fr/ile-de-france/paris/restaurant/etsi","name":"etsi","address":"23 rue eugène-carrière, paris, 75018, france","cuisine":"grecque"},{"lat":"48.5631534","lon":"-3.1502299","url":"https://guide.michelin.com//fr/fr/bretagne/guingamp/restaurant/le-clos-de-la-fontaine","name":"le clos de la fontaine","address":"9 rue du général-de-gaulle, guingamp, 22200, france","cuisine":"traditionnelle"},{"lat":"43.94424","lon":"4.80758","url":"https://guide.michelin.com//fr/fr/provence-alpes-cote-dazur/avignon/restaurant/l-agape","name":"l'agape","address":"21 place des corps-saints, avignon, 84000, france","cuisine":"moderne"},{"lat":"48.8665092","lon":"2.3852545","url":"https://guide.michelin.com//fr/fr/ile-de-france/paris/restaurant/les-canailles-menilmontant","name":"les canailles ménilmontant","address":"15 rue des panoyaux, paris, 75020, france","cuisine":"traditionnelle"},{"lat":"43.9106919","lon":"4.0032833","url":"https://guide.michelin.com//fr/fr/occitanie/quissac/restaurant/l-artysan","name":"l'artysan","address":"35 plan de la gare, quissac, 30260, france","cuisine":"moderne"},{"lat":"47.0914654","lon":"5.49449","url":"https://guide.michelin.com//fr/fr/bourgogne-franche-comte/dole/restaurant/grain-de-sel407331","name":"grain de sel","address":"67 rue pasteur, dole, 39100, france","cuisine":"moderne"},{"lat":"47.8354903","lon":"-3.3988955","url":"https://guide.michelin.com//fr/fr/bretagne/pont-scorff/restaurant/l-art-gourmand","name":"l'art gourmand","address":"14 place de la maison des princes, pont-scorff, 56620, france","cuisine":"moderne"},{"lat":"48.8918373","lon":"2.1947908","url":"https://guide.michelin.com//fr/fr/ile-de-france/nanterre/restaurant/cabane","name":"cabane","address":"8 rue du docteur-foucault, nanterre, 92000, france","cuisine":"moderne"},{"lat":"47.3595615","lon":"4.0058117","url":"https://guide.michelin.com//fr/fr/bourgogne-franche-comte/quarr-les-tombes/restaurant/le-morvan","name":"le morvan","address":"6 rue des écoles, quarré-les-tombes, 89630, france","cuisine":"moderne"},{"lat":"49.0449565","lon":"3.9614171","url":"https://guide.michelin.com//fr/fr/grand-est/pernay/restaurant/la-grillade-gourmande","name":"la grillade gourmande","address":"16 rue de reims, épernay, 51200, france","cuisine":"spécialités de grillades"},{"lat":"48.8771162","lon":"2.3407212","url":"https://guide.michelin.com//fr/fr/ile-de-france/paris/restaurant/le-caillebotte","name":"le caillebotte","address":"8 rue hippolyte-lebas, paris, 75009, france","cuisine":"moderne"},{"lat":"49.2471948","lon":"-0.2762324","url":"https://guide.michelin.com//fr/fr/normandie/bnouville/restaurant/manoir-hastings","name":"manoir hastings","address":"18 avenue de la côte-de-nacre, bénouville, 14970, france","cuisine":"moderne"},{"lat":"45.821302","lon":"1.2301273","url":"https://guide.michelin.com//fr/fr/nouvelle-aquitaine/limoges/restaurant/le-vanteaux","name":"le vanteaux","address":"162 boulevard de vanteaux, limoges, 87000, france","cuisine":"moderne"},{"lat":"47.4272632","lon":"2.6058455","url":"https://guide.michelin.com//fr/fr/centre-val-de-loire/villegenon/restaurant/la-recreation-gourmande","name":"la récréation gourmande","address":"3 rue de l'ancienne-école, villegenon, 18260, france","cuisine":"traditionnelle"},{"lat":"43.6106586","lon":"6.6890549","url":"https://guide.michelin.com//fr/fr/provence-alpes-cote-dazur/fayence/restaurant/la-table-d-yves","name":"la table d'yves","address":"1357 route de fréjus, fayence, 83440, france","cuisine":"moderne"},{"lat":"45.6502872","lon":"0.1555159","url":"https://guide.michelin.com//fr/fr/nouvelle-aquitaine/angoulme/restaurant/cokotte","name":"cokotte","address":"6 rue trois-notre-dame, angoulême, 16000, france","cuisine":"traditionnelle"},{"lat":"46.3239221","lon":"2.6044124","url":"https://guide.michelin.com//fr/fr/auvergne-rhone-alpes/montluon/restaurant/le-bistrot-saint-jean","name":"le bistrot saint jean","address":"avenue henri-de-la-tourfondue, montluçon, 03100, france","cuisine":"moderne"},{"lat":"45.59696","lon":"5.62883","url":"https://guide.michelin.com//fr/fr/auvergne-rhone-alpes/aoste/restaurant/au-coq-en-velours","name":"au coq en velours","address":"1800 route de saint-genix, aoste, 38490, france","cuisine":"traditionnelle"},{"lat":"46.4064515","lon":"-0.893102","url":"https://guide.michelin.com//fr/fr/pays-de-la-loire/velluire/restaurant/auberge-de-la-riviere","name":"auberge de la rivière","address":"rue du port-de-la-fouarne, velluire, 85770, france","cuisine":"moderne"},{"lat":"49.0316104","lon":"7.7106808","url":"https://guide.michelin.com//fr/fr/grand-est/niedersteinbach/restaurant/au-cheval-blanc12113","name":"au cheval blanc","address":"11 rue principale, niedersteinbach, 67510, france","cuisine":"traditionnelle"},{"lat":"42.9802","lon":"-0.09077","url":"https://guide.michelin.com//fr/fr/occitanie/saint-savin/restaurant/le-viscos","name":"le viscos","address":"1 rue lamarque, saint-savin, 65400, france","cuisine":"moderne"},{"lat":"43.6964964","lon":"7.275987","url":"https://guide.michelin.com//fr/fr/provence-alpes-cote-dazur/nice/restaurant/olive-et-artichaut","name":"olive et artichaut","address":"6 rue ste-réparate, nice, 06000, france","cuisine":"régionale"},{"lat":"43.1243665","lon":"6.361198","url":"https://guide.michelin.com//fr/fr/provence-alpes-cote-dazur/bormes-les-mimosa/restaurant/mimosa","name":"mimosa","address":"284 boulevard du front-de-mer, bormes-les-mimosa, 83230, france","cuisine":"provençale"},{"lat":"46.6760985","lon":"-1.6110704","url":"https://guide.michelin.com//fr/fr/pays-de-la-loire/beaulieu-sous-la-roche/restaurant/cafe-des-arts","name":"café des arts","address":"2 rue de la poste, beaulieu-sous-la-roche, 85190, france","cuisine":"traditionnelle"},{"lat":"47.4881874","lon":"2.441789","url":"https://guide.michelin.com//fr/fr/centre-val-de-loire/aubigny-sur-nre/restaurant/la-chaumiere10018","name":"la chaumière","address":"2 rue paul-lasnier, aubigny-sur-nère, 18700, france","cuisine":"traditionnelle"},{"lat":"45.78599","lon":"4.8562593","url":"https://guide.michelin.com//fr/fr/auvergne-rhone-alpes/lyon/restaurant/33-cite","name":"33 cité","address":"33 quai charles-de-gaulle, lyon, 69006, france","cuisine":"traditionnelle"},{"lat":"46.5412779","lon":"0.289254","url":"https://guide.michelin.com//fr/fr/nouvelle-aquitaine/croutelle/restaurant/la-chenaie","name":"la chênaie","address":"rue du lejat - lieu-dit la berlanderie, croutelle, 86240, france","cuisine":"traditionnelle"},{"lat":"43.53451","lon":"6.39487","url":"https://guide.michelin.com//fr/fr/provence-alpes-cote-dazur/flayosc/restaurant/le-nid","name":"le nid","address":"37 boulevard jean-moulin, flayosc, 83780, france","cuisine":"moderne"},{"lat":"46.1200105","lon":"5.1952545","url":"https://guide.michelin.com//fr/fr/auvergne-rhone-alpes/lent/restaurant/auberge-lentaise","name":"auberge lentaise","address":"grande-rue, lent, 01240, france","cuisine":"moderne"},{"lat":"47.0236705","lon":"-2.298846","url":"https://guide.michelin.com//fr/fr/pays-de-la-loire/l-herbaudire/restaurant/la-table-d-elise","name":"la table d'élise","address":"5 rue marie-lemonnier, l'herbaudière, 85330, france","cuisine":"poissons et fruits de mer"},{"lat":"45.804745","lon":"6.550681","url":"https://guide.michelin.com//fr/fr/auvergne-rhone-alpes/notre-dame-de-bellecombe/restaurant/la-ferme-de-victorine","name":"la ferme de victorine","address":"le planay, notre-dame-de-bellecombe, 73590, france","cuisine":"traditionnelle"},{"lat":"49.7065463","lon":"0.9644167","url":"https://guide.michelin.com//fr/fr/normandie/val-de-sane/restaurant/auberge-de-la-mere-duval","name":"auberge de la mère duval","address":"place daniel-boucour, val-de-saâne, 76890, france","cuisine":"moderne"},{"lat":"46.47778","lon":"-1.7364","url":"https://guide.michelin.com//fr/fr/pays-de-la-loire/chteau-d-olonne/restaurant/la-ferme-de-villeneuve","name":"la ferme de villeneuve","address":"28 rue du pré-etienne, château-d'olonne, 85180, france","cuisine":"moderne"},{"lat":"48.64499","lon":"7.67321","url":"https://guide.michelin.com//fr/fr/grand-est/pfulgriesheim/restaurant/burestubel","name":"bürestubel","address":"8 rue de lampertheim, pfulgriesheim, 67370, france","cuisine":"alsacienne"},{"lat":"48.800906","lon":"2.12518","url":"https://guide.michelin.com//fr/fr/ile-de-france/versailles/restaurant/le-bistrot-du-11","name":"le bistrot du 11","address":"10 rue de satory, versailles, 78000, france","cuisine":"moderne"},{"lat":"47.1208897","lon":"1.5255687","url":"https://guide.michelin.com//fr/fr/centre-val-de-loire/veuil/restaurant/auberge-st-fiacre","name":"auberge st-fiacre","address":"5 rue de la fontaine, veuil, 36600, france","cuisine":"moderne"},{"lat":"48.84832","lon":"2.35088","url":"https://guide.michelin.com//fr/fr/ile-de-france/paris/restaurant/cucina","name":"cucina","address":"20 rue saint-victor, paris, 75005, france","cuisine":"italienne"},{"lat":"47.81232","lon":"2.30917","url":"https://guide.michelin.com//fr/fr/centre-val-de-loire/saint-benot-sur-loire/restaurant/le-grand-st-benoit","name":"le grand st-benoît","address":"7 place st-andré, saint-benoît-sur-loire, 45730, france","cuisine":"moderne"},{"lat":"47.0593903","lon":"-0.8765558","url":"https://guide.michelin.com//fr/fr/pays-de-la-loire/cholet/restaurant/l-ourdissoir","name":"l'ourdissoir","address":"40 rue saint-bonaventure, cholet, 49300, france","cuisine":"moderne"},{"lat":"48.12144","lon":"-1.68187","url":"https://guide.michelin.com//fr/fr/bretagne/rennes/restaurant/essentiel","name":"essentiel","address":"11 rue armand-rébillon, rennes, 35000, france","cuisine":"moderne"},{"lat":"48.0953736","lon":"7.304982","url":"https://guide.michelin.com//fr/fr/grand-est/ingersheim/restaurant/la-taverne-alsacienne","name":"la taverne alsacienne","address":"99 rue de la république, ingersheim, 68040, france","cuisine":"traditionnelle"},{"lat":"50.7279114","lon":"2.3706243","url":"https://guide.michelin.com//fr/fr/hauts-de-france/renescure/restaurant/la-table-de-romain","name":"la table de romain","address":"1 rue gaston-robbe, renescure, 59173, france","cuisine":"classique"},{"lat":"45.6243275","lon":"-1.0266114","url":"https://guide.michelin.com//fr/fr/nouvelle-aquitaine/royan/restaurant/boulevard-45","name":"boulevard 45","address":"45 boulevard de la république, royan, 17200, france","cuisine":"moderne"},{"lat":"46.5643976","lon":"3.3318984","url":"https://guide.michelin.com//fr/fr/auvergne-rhone-alpes/moulins/restaurant/le-bistrot-de-guillaume","name":"le bistrot de guillaume","address":"13 rue de pont, moulins, 03000, france","cuisine":"moderne"},{"lat":"47.2981892","lon":"-2.5154108","url":"https://guide.michelin.com//fr/fr/pays-de-la-loire/le-croisic/restaurant/l-estacade","name":"l'estacade","address":"4 quai du lénigo, le croisic, 44490, france","cuisine":"moderne"},{"lat":"43.83901","lon":"4.35822","url":"https://guide.michelin.com//fr/fr/occitanie/nimes/restaurant/aux-plaisirs-des-halles","name":"aux plaisirs des halles","address":"4 rue littré, nîmes, 30000, france","cuisine":"traditionnelle"},{"lat":"45.765232","lon":"4.843532","url":"https://guide.michelin.com//fr/fr/auvergne-rhone-alpes/lyon/restaurant/sauf-imprevu","name":"sauf imprévu","address":"40 rue pierre-corneille, lyon, 69006, france","cuisine":"traditionnelle"},{"lat":"45.8973707","lon":"6.1227595","url":"https://guide.michelin.com//fr/fr/auvergne-rhone-alpes/annecy/restaurant/cozna","name":"cozna","address":"22 faubourg sainte-claire, annecy, 74000, france","cuisine":"moderne"},{"lat":"46.81291","lon":"1.6941","url":"https://guide.michelin.com//fr/fr/centre-val-de-loire/chteauroux/restaurant/jeux-2-gouts","name":"jeux 2 goûts","address":"40 rue grande, châteauroux, 36000, france","cuisine":"moderne"},{"lat":"47.371487","lon":"-1.016588","url":"https://guide.michelin.com//fr/fr/pays-de-la-loire/varades/restaurant/la-closerie-des-roses","name":"la closerie des roses","address":"455 la haute-meilleraie, varades, 44370, france","cuisine":"classique"},{"lat":"48.0402413","lon":"0.5356451","url":"https://guide.michelin.com//fr/fr/pays-de-la-loire/thorign-sur-du/restaurant/le-saint-jacques","name":"le saint-jacques","address":"place du monument, thorigné-sur-dué, 72160, france","cuisine":"moderne"},{"lat":"48.8659971","lon":"2.350765","url":"https://guide.michelin.com//fr/fr/ile-de-france/paris/restaurant/itacoa","name":"itacoa","address":"185 rue st-denis, paris, 75002, france","cuisine":"moderne"},{"lat":"44.4691067","lon":"4.7433743","url":"https://guide.michelin.com//fr/fr/auvergne-rhone-alpes/malataverne/restaurant/le-bistrot-270","name":"le bistrot 270","address":"1 offre","cuisine":"traditionnelle"},{"lat":"48.8965721","lon":"-0.1962214","url":"https://guide.michelin.com//fr/fr/normandie/falaise/restaurant/o-saveurs11135","name":"ô saveurs","address":"38 rue georges-clemenceau, falaise, 14700, france","cuisine":"moderne"},{"lat":"48.82214","lon":"2.3613799","url":"https://guide.michelin.com//fr/fr/ile-de-france/paris/restaurant/pho-tai","name":"pho tai","address":"13 rue philibert-lucot, paris, 75013, france","cuisine":"vietnamienne"},{"lat":"48.6441076","lon":"2.3279829","url":"https://guide.michelin.com//fr/fr/ile-de-france/sainte-genevive-des-bois/restaurant/la-table-d-antan","name":"la table d'antan","address":"38 avenue de la grande-charmille-du-parc, sainte-geneviève-des-bois, 91700, france","cuisine":"du sud-ouest"},{"lat":"48.8887986","lon":"2.3182266","url":"https://guide.michelin.com//fr/fr/ile-de-france/paris/restaurant/l-envie-du-jour","name":"l'envie du jour","address":"106 rue nollet, paris, 75017, france","cuisine":"moderne"},{"lat":"48.87939","lon":"2.3211699","url":"https://guide.michelin.com//fr/fr/ile-de-france/paris/restaurant/mandoobar","name":"mandoobar","address":"7 rue d'edimbourg, paris, 75008, france","cuisine":"coréenne"},{"lat":"50.40602","lon":"2.228803","url":"https://guide.michelin.com//fr/fr/hauts-de-france/bermicourt/restaurant/la-cour-de-remi","name":"la cour de rémi","address":"1 rue baillet, bermicourt, 62130, france","cuisine":"traditionnelle"},{"lat":"45.7813394","lon":"3.0824063","url":"https://guide.michelin.com//fr/fr/auvergne-rhone-alpes/clermont-ferrand/restaurant/le-saint-eutrope","name":"le saint-eutrope","address":"4 rue st-eutrope, clermont-ferrand, 63000, france","cuisine":"moderne"},{"lat":"46.30794","lon":"4.92875","url":"https://guide.michelin.com//fr/fr/auvergne-rhone-alpes/bg-le-chtel/restaurant/la-table-bagesienne","name":"la table bâgésienne","address":"19 grande-rue, bâgé-le-châtel, 01380, france","cuisine":"moderne"},{"lat":"43.6762","lon":"4.62703","url":"https://guide.michelin.com//fr/fr/provence-alpes-cote-dazur/arles/restaurant/bistro-a-cote","name":"bistro à côté","address":"21 rue des carmes, arles, 13200, france","cuisine":"provençale"},{"lat":"48.6962266","lon":"6.1789776","url":"https://guide.michelin.com//fr/fr/grand-est/nancy/restaurant/la-toq","name":"la toq'","address":"1 rue monseigneur-trouillet, nancy, 54000, france","cuisine":"moderne"},{"lat":"47.19919","lon":"6.70322","url":"https://guide.michelin.com//fr/fr/bourgogne-franche-comte/bonntage/restaurant/le-bistrot378013","name":"le bistrot","address":"5 chemin de l'étang-du-moulin, bonnétage, 25210, france","cuisine":"traditionnelle"},{"lat":"43.11806","lon":"5.80268","url":"https://guide.michelin.com//fr/fr/provence-alpes-cote-dazur/sanary-sur-mer/restaurant/la-p-tite-cour","name":"la p'tite cour","address":"6 rue barthélemy-de-don, sanary-sur-mer, 83110, france","cuisine":"moderne"},{"lat":"42.5469187","lon":"3.0226404","url":"https://guide.michelin.com//fr/fr/occitanie/argels-sur-mer/restaurant/la-bartavelle472323","name":"la bartavelle","address":"24 rue de la république, argelès-sur-mer, 66700, france","cuisine":"créative"},{"lat":"46.155205","lon":"4.172228","url":"https://guide.michelin.com//fr/fr/auvergne-rhone-alpes/charlieu/restaurant/relais-de-l-abbaye","name":"relais de l'abbaye","address":"415 route du beaujolais, charlieu, 42190, france","cuisine":"moderne"},{"lat":"45.00345","lon":"4.87224","url":"https://guide.michelin.com//fr/fr/auvergne-rhone-alpes/pont-de-l-isre/restaurant/maison-chabran-espace-gourmand","name":"maison chabran - espace gourmand","address":"2 offres","cuisine":"moderne"},{"lat":"48.3789","lon":"0.680871","url":"https://guide.michelin.com//fr/fr/normandie/noc/restaurant/auberge-des-3-j","name":"auberge des 3 j","address":"1 place du docteur-gireaux, nocé, 61340, france","cuisine":"moderne"},{"lat":"48.0074099","lon":"7.2976271","url":"https://guide.michelin.com//fr/fr/grand-est/hattstatt/restaurant/l-altevic","name":"l'altévic","address":"4 rue du wiggensbach, hattstatt, 68420, france","cuisine":"moderne"},{"lat":"48.8330076","lon":"2.3149935","url":"https://guide.michelin.com//fr/fr/ile-de-france/paris/restaurant/bistrotters","name":"bistrotters","address":"9 rue decrès, paris, 75014, france","cuisine":"moderne"},{"lat":"47.8693708","lon":"-3.9168","url":"https://guide.michelin.com//fr/fr/bretagne/concarneau/restaurant/le-flaveur","name":"le flaveur","address":"4 rue duquesne, concarneau, 29900, france","cuisine":"moderne"},{"lat":"44.6259289","lon":"4.3938181","url":"https://guide.michelin.com//fr/fr/auvergne-rhone-alpes/aubenas/restaurant/les-coloquintes","name":"les coloquintes","address":"quai de l'ardèche, aubenas, 07200, france","cuisine":"moderne"},{"lat":"47.08076","lon":"-2.03654","url":"https://guide.michelin.com//fr/fr/pays-de-la-loire/la-bernerie-en-retz/restaurant/l-artimon","name":"l'artimon","address":"17 rue jean-du-plessis, la bernerie-en-retz, 44760, france","cuisine":"traditionnelle"},{"lat":"47.8553851","lon":"-3.7479875","url":"https://guide.michelin.com//fr/fr/bretagne/pont-aven/restaurant/sur-le-pont","name":"sur le pont ...","address":"11 place paul-gauguin, pont-aven, 29930, france","cuisine":"moderne"},{"lat":"43.2289148","lon":"6.5858583","url":"https://guide.michelin.com//fr/fr/provence-alpes-cote-dazur/gassin/restaurant/bello-visto","name":"bello visto","address":"place des barrys, gassin, 83580, france","cuisine":"traditionnelle"},{"lat":"48.74548","lon":"-0.57246","url":"https://guide.michelin.com//fr/fr/normandie/flers/restaurant/au-bout-de-la-rue","name":"au bout de la rue","address":"60 rue de la gare, flers, 61100, france","cuisine":"moderne"},{"lat":"49.58666","lon":"-1.2670618","url":"https://guide.michelin.com//fr/fr/normandie/saint-vaast-la-hougue/restaurant/france-et-fuchsias","name":"france et fuchsias","address":"20 rue du maréchal-foch, saint-vaast-la-hougue, 50550, france","cuisine":"moderne"},{"lat":"44.968426","lon":"2.64346","url":"https://guide.michelin.com//fr/fr/auvergne-rhone-alpes/saint-clment/restaurant/hostellerie-saint-clement","name":"hostellerie saint-clément","address":"col de curebourse, saint-clément, 15800, france","cuisine":"traditionnelle"},{"lat":"43.40744","lon":"2.97246","url":"https://guide.michelin.com//fr/fr/occitanie/berlou/restaurant/le-faitout","name":"le faitout","address":"1 place du pont, berlou, 34360, france","cuisine":"moderne"},{"lat":"47.62302","lon":"-2.89846","url":"https://guide.michelin.com//fr/fr/bretagne/baden/restaurant/le-gavrinis","name":"le gavrinis","address":"1 rue de l'ile-gavrinis, baden, 56870, france","cuisine":"moderne"},{"lat":"43.6436411","lon":"1.5222273","url":"https://guide.michelin.com//fr/fr/occitanie/montrab/restaurant/l-instant","name":"l'instant...","address":"13/14 chemin du logis-vieux, montrabé, 31850, france","cuisine":"moderne"},{"lat":"45.1670672","lon":"1.5315632","url":"https://guide.michelin.com//fr/fr/nouvelle-aquitaine/brive-la-gaillarde/restaurant/la-toupine","name":"la toupine","address":"27 avenue pasteur, brive-la-gaillarde, 19100, france","cuisine":"moderne"},{"lat":"43.588977","lon":"6.3032316","url":"https://guide.michelin.com//fr/fr/provence-alpes-cote-dazur/tourtour/restaurant/la-table63544","name":"la table","address":"1 traverse de jas, les ribas, tourtour, 83690, france","cuisine":"moderne"},{"lat":"48.64783","lon":"-2.02431","url":"https://guide.michelin.com//fr/fr/bretagne/saint-malo/restaurant/le-cambusier","name":"le cambusier","address":"6 rue des cordiers, saint-malo, 35400, france","cuisine":"moderne"},{"lat":"48.8422899","lon":"2.3310161","url":"https://guide.michelin.com//fr/fr/ile-de-france/paris/restaurant/esttia","name":"esttia","address":"1 offre","cuisine":"méditerranéenne"},{"lat":"43.2970504","lon":"2.3110884","url":"https://guide.michelin.com//fr/fr/occitanie/aragon/restaurant/la-bergerie64657","name":"la bergerie","address":"allée pech marie, aragon, 11600, france","cuisine":"moderne"},{"lat":"45.0745399","lon":"4.8610574","url":"https://guide.michelin.com//fr/fr/auvergne-rhone-alpes/tain-l-hermitage/restaurant/maison-gambert","name":"maison gambert","address":"2 rue de la petite-pirelle, tain-l'hermitage, 26600, france","cuisine":"moderne"},{"lat":"47.1669407","lon":"0.2401172","url":"https://guide.michelin.com//fr/fr/centre-val-de-loire/chinon/restaurant/au-chapeau-rouge","name":"au chapeau rouge","address":"49 place du général-de-gaulle, chinon, 37500, france","cuisine":"du terroir"},{"lat":"44.45969","lon":"2.42722","url":"https://guide.michelin.com//fr/fr/occitanie/valady/restaurant/auberge-de-l-ady","name":"auberge de l'ady","address":"1 avenue du pont-de-malakoff, valady, 12330, france","cuisine":"moderne"},{"lat":"43.643583","lon":"0.61742","url":"https://guide.michelin.com//fr/fr/occitanie/auch/restaurant/domaine-de-baulieu","name":"domaine de baulieu","address":"822 chemin de lussan, auch, 32000, france","cuisine":"moderne"},{"lat":"48.86436","lon":"2.37279","url":"https://guide.michelin.com//fr/fr/ile-de-france/paris/restaurant/le-villaret","name":"le villaret","address":"13 rue ternaux, paris, 75011, france","cuisine":"traditionnelle"},{"lat":"46.186364","lon":"3.1580868","url":"https://guide.michelin.com//fr/fr/auvergne-rhone-alpes/charroux/restaurant/ferme-saint-sebastien","name":"la ferme saint-sébastien","address":"chemin de bourion, charroux, 03140, france","cuisine":"moderne"},{"lat":"45.1905701","lon":"-0.7553902","url":"https://guide.michelin.com//fr/fr/nouvelle-aquitaine/pauillac/restaurant/cafe-lavinal","name":"café lavinal","address":"place desquet, pauillac, 33250, france","cuisine":"traditionnelle"},{"lat":"47.90028","lon":"1.91114","url":"https://guide.michelin.com//fr/fr/centre-val-de-loire/orleans/restaurant/l-hibiscus","name":"l'hibiscus","address":"175 rue de bourgogne, orléans, 45000, france","cuisine":"moderne"},{"lat":"43.5968455","lon":"1.4469377","url":"https://guide.michelin.com//fr/fr/occitanie/toulouse/restaurant/une-table-a-deux","name":"une table à deux","address":"10 rue de la pleau, toulouse, 31000, france","cuisine":"moderne"},{"lat":"47.63575","lon":"7.53557","url":"https://guide.michelin.com//fr/fr/grand-est/rosenau/restaurant/au-lion-d-or-chez-theo","name":"au lion d'or - chez théo","address":"5 rue village-neuf, rosenau, 68128, france","cuisine":"moderne"},{"lat":"43.0638687","lon":"0.1462046","url":"https://guide.michelin.com//fr/fr/occitanie/bagnres-de-bigorre/restaurant/le-jardin-des-brouches","name":"le jardin des brouches","address":"1 boulevard de l'hypéron, bagnères-de-bigorre, 65200, france","cuisine":"moderne"},{"lat":"50.6443465","lon":"3.057951","url":"https://guide.michelin.com//fr/fr/hauts-de-france/lille/restaurant/gabbro","name":"gabbro","address":"55 rue saint-andré, lille, 59000, france","cuisine":"traditionnelle"},{"lat":"48.8536111","lon":"2.3806195","url":"https://guide.michelin.com//fr/fr/ile-de-france/paris/restaurant/clamato","name":"clamato","address":"80 rue de charonne, paris, 75011, france","cuisine":"poissons et fruits de mer"},{"lat":"45.7776523","lon":"4.8341694","url":"https://guide.michelin.com//fr/fr/auvergne-rhone-alpes/lyon/restaurant/aromatic","name":"aromatic","address":"15 rue du chariot-d'or, lyon, 69004, france","cuisine":"moderne"},{"lat":"47.2205946","lon":"-1.5551373","url":"https://guide.michelin.com//fr/fr/pays-de-la-loire/nantes/restaurant/l-oceanide","name":"l'océanide","address":"2 rue paul-bellamy, nantes, 44000, france","cuisine":"poissons et fruits de mer"},{"lat":"48.12164","lon":"-3.23481","url":"https://guide.michelin.com//fr/fr/bretagne/langolan/restaurant/l-atelier-bistrot","name":"l'atelier bistrot","address":"24 rue duchelas, langoëlan, 56160, france","cuisine":"moderne"},{"lat":"45.28382","lon":"-0.41022","url":"https://guide.michelin.com//fr/fr/nouvelle-aquitaine/montendre/restaurant/la-quincaillerie","name":"la quincaillerie","address":"30 rue de l'hôtel de ville, montendre, 17130, france","cuisine":"moderne"},{"lat":"48.86623","lon":"2.33908","url":"https://guide.michelin.com//fr/fr/ile-de-france/paris/restaurant/depot-legal","name":"dépôt légal","address":"6 rue des petits-champs, paris, 75002, france","cuisine":"moderne"},{"lat":"47.64119","lon":"1.44542","url":"https://guide.michelin.com//fr/fr/centre-val-de-loire/montlivault/restaurant/cote-bistro","name":"côté bistro","address":"25 rue de chambord, montlivault, 41350, france","cuisine":"traditionnelle"},{"lat":"45.0699","lon":"4.83686","url":"https://guide.michelin.com//fr/fr/auvergne-rhone-alpes/tain-l-hermitage/restaurant/le-mangevins","name":"le mangevins","address":"7 rue des herbes, tain-l'hermitage, 26600, france","cuisine":"moderne"},{"lat":"43.83545","lon":"4.35951","url":"https://guide.michelin.com//fr/fr/occitanie/nimes/restaurant/le-lisita","name":"le lisita","address":"2 boulevard des arènes, nîmes, 30000, france","cuisine":"moderne"},{"lat":"50.61393","lon":"2.46246","url":"https://guide.michelin.com//fr/fr/hauts-de-france/isbergues/restaurant/le-buffet","name":"le buffet","address":"22 rue de la gare, isbergues, 62330, france","cuisine":"moderne"},{"lat":"47.6535372","lon":"7.4552974","url":"https://guide.michelin.com//fr/fr/grand-est/sierentz/restaurant/winstub-a-cote","name":"winstub à côté","address":"2 rue rogg-haas, sierentz, 68510, france","cuisine":"régionale"},{"lat":"47.8228","lon":"1.2961918","url":"https://guide.michelin.com//fr/fr/centre-val-de-loire/oucques/restaurant/o-en-couleur","name":"ô en couleur","address":"9 rue de beaugency, oucques, 41290, france","cuisine":"moderne"},{"lat":"48.4891496","lon":"-2.7921485","url":"https://guide.michelin.com//fr/fr/bretagne/ploufragan/restaurant/le-brezoune","name":"le brézoune","address":"15 rue de la poste, ploufragan, 22440, france","cuisine":"moderne"},{"lat":"44.173642","lon":"1.5661065","url":"https://guide.michelin.com//fr/fr/occitanie/monteils/restaurant/le-clos-monteils","name":"le clos monteils","address":"7 chemin du moulin, monteils, 82300, france","cuisine":"traditionnelle"},{"lat":"48.8757697","lon":"2.3873686","url":"https://guide.michelin.com//fr/fr/ile-de-france/paris/restaurant/cheval-d-or","name":"cheval d'or","address":"21 rue de la villette, paris, 75019, france","cuisine":"chinoise"},{"lat":"47.367393","lon":"-1.174371","url":"https://guide.michelin.com//fr/fr/pays-de-la-loire/ancenis/restaurant/la-toile-a-beurre","name":"la toile à beurre","address":"82 rue saint-pierre, ancenis, 44150, france","cuisine":"moderne"},{"lat":"43.3413262","lon":"3.2155488","url":"https://guide.michelin.com//fr/fr/occitanie/bziers/restaurant/pica-pica","name":"pica pica","address":"20 boulevard jean-jaurès, béziers, 34500, france","cuisine":"méditerranéenne"},{"lat":"48.258694","lon":"7.456646","url":"https://guide.michelin.com//fr/fr/grand-est/slestat/restaurant/au-bon-pichet","name":"au bon pichet","address":"10 place du marché-aux-choux, sélestat, 67600, france","cuisine":"traditionnelle"},{"lat":"48.0982151","lon":"-4.2083201","url":"https://guide.michelin.com//fr/fr/bretagne/locronan/restaurant/comptoir-des-voyageurs","name":"comptoir des voyageurs","address":"place de l'église, locronan, 29180, france","cuisine":"moderne"},{"lat":"47.3474002","lon":"0.5416983","url":"https://guide.michelin.com//fr/fr/centre-val-de-loire/savonnires/restaurant/la-maison-tourangelle","name":"la maison tourangelle","address":"9 route des grottes-pétrifiantes, savonnières, 37510, france","cuisine":"moderne"},{"lat":"43.5285427","lon":"1.4807838","url":"https://guide.michelin.com//fr/fr/occitanie/auzeville-tolosane/restaurant/la-table-d-auzeville","name":"la table d'auzeville","address":"35 chemin de l'église, auzeville-tolosane, 31320, france","cuisine":"classique"},{"lat":"45.1439578","lon":"4.1242798","url":"https://guide.michelin.com//fr/fr/auvergne-rhone-alpes/yssingeaux/restaurant/le-bourbon","name":"le bourbon","address":"5 place de la victoire, yssingeaux, 43200, france","cuisine":"du terroir"},{"lat":"46.6651275","lon":"-1.449525","url":"https://guide.michelin.com//fr/fr/pays-de-la-loire/la-roche-sur-yon/restaurant/les-reflets","name":"les reflets","address":"227 rue roger-salengro, la roche-sur-yon, 85000, france","cuisine":"moderne"},{"lat":"47.120132","lon":"0.4253755","url":"https://guide.michelin.com//fr/fr/centre-val-de-loire/l-le-bouchard/restaurant/auberge-de-l-ile","name":"auberge de l'île","address":"3 place bouchard, l'île-bouchard, 37220, france","cuisine":"moderne"},{"lat":"50.1180651","lon":"4.0821925","url":"https://guide.michelin.com//fr/fr/hauts-de-france/liessies/restaurant/le-carillon4140","name":"le carillon","address":"1 rue roger-salengro, liessies, 59740, france","cuisine":"traditionnelle"},{"lat":"48.9242152","lon":"-1.2674941","url":"https://guide.michelin.com//fr/fr/normandie/hambye/restaurant/auberge-de-l-abbaye3653","name":"auberge de l'abbaye","address":"5 route de l'abbaye, hambye, 50450, france","cuisine":"moderne"},{"lat":"44.12126","lon":"4.08269","url":"https://guide.michelin.com//fr/fr/occitanie/als/restaurant/epices-et-tout","name":"épices et tout","address":"15 avenue carnot, alès, 30100, france","cuisine":"moderne"},{"lat":"45.7672114","lon":"4.8546438","url":"https://guide.michelin.com//fr/fr/auvergne-rhone-alpes/lyon/restaurant/semanteme","name":"sémantème","address":"73 rue masséna, lyon, 69006, france","cuisine":"moderne"},{"lat":"44.8515796","lon":"3.0029972","url":"https://guide.michelin.com//fr/fr/auvergne-rhone-alpes/chaudes-aigues/restaurant/sodade","name":"sodade","address":"21 avenue du président-georges-pompidou, chaudes-aigues, 15110, france","cuisine":"moderne"},{"lat":"48.5058435","lon":"-2.7663882","url":"https://guide.michelin.com//fr/fr/bretagne/saint-brieuc/restaurant/o-saveurs186112","name":"ô saveurs","address":"10 rue jules-ferry, saint-brieuc, 22000, france","cuisine":"moderne"},{"lat":"47.3249604","lon":"0.40755","url":"https://guide.michelin.com//fr/fr/centre-val-de-loire/langeais/restaurant/au-coin-des-halles","name":"au coin des halles","address":"9 rue gambetta, langeais, 37130, france","cuisine":"moderne"},{"lat":"46.298183","lon":"5.387954","url":"https://guide.michelin.com//fr/fr/auvergne-rhone-alpes/treffort/restaurant/voyages-des-sens","name":"voyages des sens","address":"33 rue principale, treffort, 01370, france","cuisine":"moderne"},{"lat":"44.9929768","lon":"-0.4480447","url":"https://guide.michelin.com//fr/fr/nouvelle-aquitaine/saint-andr-de-cubzac/restaurant/la-table-d-inomoto","name":"la table d'inomoto","address":"85 rue nationale, saint-andré-de-cubzac, 33240, france","cuisine":"fusion"},{"lat":"46.5656047","lon":"4.9077247","url":"https://guide.michelin.com//fr/fr/bourgogne-franche-comte/tournus/restaurant/le-bouchon-bourguignon","name":"le bouchon bourguignon","address":"1 rue albert-thibaudet, tournus, 71700, france","cuisine":"régionale"},{"lat":"43.60857","lon":"3.87305","url":"https://guide.michelin.com//fr/fr/occitanie/montpellier/restaurant/le-bistro-urbain","name":"le bistro urbain","address":"15 boulevard ledru-rollin, montpellier, 34000, france","cuisine":"moderne"},{"lat":"46.3904152","lon":"4.6250769","url":"https://guide.michelin.com//fr/fr/bourgogne-franche-comte/sainte-ccile/restaurant/l-embellie8305","name":"l'embellie","address":"le bourg, sainte-cécile, 71250, france","cuisine":"moderne"},{"lat":"45.2033412","lon":"0.6679225","url":"https://guide.michelin.com//fr/fr/nouvelle-aquitaine/chancelade/restaurant/la-verriere345033","name":"la verrière","address":"15 avenue des reynats, chancelade, 24650, france","cuisine":"moderne"},{"lat":"45.75618","lon":"4.8574","url":"https://guide.michelin.com//fr/fr/auvergne-rhone-alpes/lyon/restaurant/danton","name":"danton","address":"8 rue danton, lyon, 69003, france","cuisine":"moderne"},{"lat":"47.9255981","lon":"6.9506039","url":"https://guide.michelin.com//fr/fr/grand-est/le-frenz/restaurant/les-quatre-saisons","name":"les quatre saisons","address":"3 route du frenz, le frenz, 68820, france","cuisine":"moderne"},{"lat":"46.3190731","lon":"2.9562153","url":"https://guide.michelin.com//fr/fr/auvergne-rhone-alpes/montmarault/restaurant/hotel-de-france5012","name":"hôtel de france","address":"1 rue marx-dormoy, montmarault, 03390, france","cuisine":"moderne"},{"lat":"46.1116433","lon":"2.1771463","url":"https://guide.michelin.com//fr/fr/nouvelle-aquitaine/chnrailles/restaurant/le-coq-d-or","name":"le coq d'or","address":"7 place du champ-de-foire, chénérailles, 23130, france","cuisine":"moderne"},{"lat":"47.0938975","lon":"5.4948113","url":"https://guide.michelin.com//fr/fr/bourgogne-franche-comte/dole/restaurant/iida-ya","name":"iida-ya","address":"18 rue arney, dole, 39100, france","cuisine":"japonaise"},{"lat":"45.5967688","lon":"1.2406158","url":"https://guide.michelin.com//fr/fr/nouvelle-aquitaine/la-roche-l-abeille/restaurant/la-table-du-moulin","name":"la table du moulin","address":"3 rue du 8 mai 1945, la roche-l'abeille, 87800, france","cuisine":"traditionnelle"},{"lat":"49.0447913","lon":"3.9590644","url":"https://guide.michelin.com//fr/fr/grand-est/pernay/restaurant/le-theatre3027","name":"le théâtre","address":"8 place mendes-france, épernay, 51200, france","cuisine":"traditionnelle"},{"lat":"43.40539","lon":"3.69648","url":"https://guide.michelin.com//fr/fr/occitanie/ste/restaurant/quai-17","name":"quai 17","address":"17 quai maréchal-de-lattre-de-tassigny, sète, 34200, france","cuisine":"moderne"},{"lat":"48.0423858","lon":"-4.0725792","url":"https://guide.michelin.com//fr/fr/bretagne/ty-sanquer/restaurant/auberge-de-ti-coz","name":"auberge de ti-coz","address":"4 hent-koz, ty-sanquer, 29000, france","cuisine":"moderne"},{"lat":"43.35605","lon":"-1.5633099","url":"https://guide.michelin.com//fr/fr/nouvelle-aquitaine/saint-pe-sur-nivelle/restaurant/ttotta","name":"ttotta","address":"espace ibarrondoan, saint-pée-sur-nivelle, 64310, france","cuisine":"moderne"},{"lat":"45.59301","lon":"6.45704","url":"https://guide.michelin.com//fr/fr/auvergne-rhone-alpes/cevins/restaurant/la-fleur-de-sel121851","name":"la fleur de sel","address":"15 route du portelin, cevins, 73730, france","cuisine":"moderne"},{"lat":"46.0750236","lon":"-1.0934672","url":"https://guide.michelin.com//fr/fr/nouvelle-aquitaine/chtelaillon-plage/restaurant/les-flots","name":"les flots","address":"52 boulevard de la mer, châtelaillon-plage, 17340, france","cuisine":"moderne"},{"lat":"43.516077","lon":"6.3658287","url":"https://guide.michelin.com//fr/fr/provence-alpes-cote-dazur/lorgues/restaurant/le-bistrot","name":"le bistrot","address":"chemin des imberts, route de salernes, lorgues, 83510, france","cuisine":"traditionnelle"},{"lat":"46.64788","lon":"-1.81778","url":"https://guide.michelin.com//fr/fr/pays-de-la-loire/la-chaize-giraud/restaurant/la-chaize-gourmande","name":"la chaize gourmande","address":"2 place du marché, la chaize-giraud, 85220, france","cuisine":"du marché"},{"lat":"48.8106504","lon":"7.7919128","url":"https://guide.michelin.com//fr/fr/grand-est/haguenau/restaurant/le-jardin3646","name":"le jardin","address":"16 rue de la redoute, haguenau, 67500, france","cuisine":"moderne"},{"lat":"48.5602808","lon":"1.0338828","url":"https://guide.michelin.com//fr/fr/centre-val-de-loire/senonches/restaurant/la-foret333279","name":"la forêt","address":"22 rue de verdun, senonches, 28250, france","cuisine":"moderne"},{"lat":"47.21085","lon":"-1.7278","url":"https://guide.michelin.com//fr/fr/pays-de-la-loire/couron/restaurant/le-francois-ii","name":"le françois ii","address":"5 place aristide-briand, couëron, 44220, france","cuisine":"traditionnelle"},{"lat":"48.4408769","lon":"0.5461498","url":"https://guide.michelin.com//fr/fr/normandie/le-pin-la-garenne/restaurant/la-croix-d-or5115","name":"la croix d'or","address":"6 rue de la herse, le pin-la-garenne, 61400, france","cuisine":"traditionnelle"},{"lat":"47.2563803","lon":"-0.0824101","url":"https://guide.michelin.com//fr/fr/pays-de-la-loire/saumur/restaurant/l-escargot","name":"l'escargot","address":"30 rue du maréchal-leclerc, saumur, 49400, france","cuisine":"traditionnelle"},{"lat":"44.1870331","lon":"0.7973294","url":"https://guide.michelin.com//fr/fr/nouvelle-aquitaine/puymirol/restaurant/la-poule-d-or","name":"la poule d'or","address":"52 rue royale, puymirol, 47270, france","cuisine":"traditionnelle"},{"lat":"48.5959192","lon":"-4.560557","url":"https://guide.michelin.com//fr/fr/bretagne/landda/restaurant/le-vioben","name":"le vioben","address":"30 ar palud, landéda, 29870, france","cuisine":"poissons et fruits de mer"},{"lat":"43.8438177","lon":"5.0806265","url":"https://guide.michelin.com//fr/fr/provence-alpes-cote-dazur/taillades/restaurant/l-atelier-l-art-des-mets","name":"l'atelier l'art des mets","address":"500 route de robion, taillades, 84300, france","cuisine":"moderne"},{"lat":"43.9609802","lon":"1.2359375","url":"https://guide.michelin.com//fr/fr/occitanie/montech/restaurant/bistrot-constant","name":"bistrot constant","address":"25 rue de l'usine, montech, 82700, france","cuisine":"traditionnelle"},{"lat":"47.4064922","lon":"5.0172803","url":"https://guide.michelin.com//fr/fr/bourgogne-franche-comte/messigny-et-vantoux/restaurant/auberge-des-tilleuls","name":"auberge des tilleuls","address":"8 place de l'église, messigny-et-vantoux, 21380, france","cuisine":"traditionnelle"},{"lat":"49.0613415","lon":"0.5962514","url":"https://guide.michelin.com//fr/fr/normandie/bernay/restaurant/le-moulin-fouret","name":"le moulin fouret","address":"2 route du moulin-fouret, à saint-aubin-le-vertueux, bernay, 27300, france","cuisine":"moderne"},{"lat":"48.86888","lon":"2.3378797","url":"https://guide.michelin.com//fr/fr/ile-de-france/paris/restaurant/l-oseille","name":"l'oseille","address":"3 rue st-augustin, paris, 75002, france","cuisine":"traditionnelle"},{"lat":"46.0675732","lon":"6.471287","url":"https://guide.michelin.com//fr/fr/auvergne-rhone-alpes/vougy/restaurant/le-capucin-gourmand","name":"le capucin gourmand","address":"1520 route de genève, vougy, 74130, france","cuisine":"classique"},{"lat":"43.7779818","lon":"7.3819396","url":"https://guide.michelin.com//fr/fr/provence-alpes-cote-dazur/peillon/restaurant/les-plaisirs","name":"les plaisirs","address":"2 rue puada dau gourguet, peillon, 06440, france","cuisine":"régionale"},{"lat":"47.8910288","lon":"-3.9730052","url":"https://guide.michelin.com//fr/fr/bretagne/cap-coz/restaurant/la-pointe-du-cap-coz","name":"la pointe du cap coz","address":"1 offre","cuisine":"moderne"},{"lat":"48.8464457","lon":"2.3518202","url":"https://guide.michelin.com//fr/fr/ile-de-france/paris/restaurant/kokoro","name":"kokoro","address":"36 rue des boulangers, paris, 75005, france","cuisine":"moderne"},{"lat":"43.2515982","lon":"6.5320097","url":"https://guide.michelin.com//fr/fr/provence-alpes-cote-dazur/cogolin/restaurant/la-grange-des-agapes","name":"la grange des agapes","address":"7 rue du 11-novembre, cogolin, 83310, france","cuisine":"moderne"},{"lat":"43.1262102","lon":"6.0991484","url":"https://guide.michelin.com//fr/fr/provence-alpes-cote-dazur/hyres/restaurant/la-colombe","name":"la colombe","address":"663 route de toulon, hyères, 83400, france","cuisine":"traditionnelle"},{"lat":"48.8596272","lon":"2.2992616","url":"https://guide.michelin.com//fr/fr/ile-de-france/paris/restaurant/au-bon-accueil6011","name":"au bon accueil","address":"14 rue de monttessuy, paris, 75007, france","cuisine":"moderne"},{"lat":"48.85022","lon":"2.38211","url":"https://guide.michelin.com//fr/fr/ile-de-france/paris/restaurant/jouvence","name":"jouvence","address":"172 bis rue du faubourg-st-antoine, paris, 75012, france","cuisine":"moderne"},{"lat":"44.7746774","lon":"0.8159677","url":"https://guide.michelin.com//fr/fr/nouvelle-aquitaine/saint-avit-snieur/restaurant/la-table-de-leo","name":"la table de léo","address":"le bourg, saint-avit-sénieur, 24440, france","cuisine":"moderne"},{"lat":"43.699589","lon":"7.274214","url":"https://guide.michelin.com//fr/fr/provence-alpes-cote-dazur/nice/restaurant/vegan-gorilla","name":"vegan gorilla","address":"7 rue du lycée, nice, 06000, france","cuisine":"végétarienne"},{"lat":"49.640044","lon":"-1.6214966","url":"https://guide.michelin.com//fr/fr/normandie/cherbourg-en-cotentin/restaurant/le-vauban","name":"le vauban","address":"22 quai caligny, cherbourg-en-cotentin, 50100, france","cuisine":"moderne"},{"lat":"48.1977492","lon":"7.3346994","url":"https://guide.michelin.com//fr/fr/grand-est/ribeauvill/restaurant/auberge-du-parc-carola","name":"auberge du parc carola","address":"48 route de bergheim, ribeauvillé, 68150, france","cuisine":"moderne"},{"lat":"46.2032302","lon":"5.2272856","url":"https://guide.michelin.com//fr/fr/auvergne-rhone-alpes/bourg-en-bresse/restaurant/mets-et-vins","name":"mets et vins","address":"11 rue de la république, bourg-en-bresse, 01000, france","cuisine":"moderne"},{"lat":"48.1082724","lon":"-1.6827589","url":"https://guide.michelin.com//fr/fr/bretagne/rennes/restaurant/la-petite-ourse","name":"la petite ourse","address":"48 boulevard de la liberté, rennes, 35000, france","cuisine":"du marché"},{"lat":"50.96652","lon":"1.84272","url":"https://guide.michelin.com//fr/fr/hauts-de-france/calais/restaurant/au-cote-d-argent","name":"au côte d'argent","address":"1 digue gaston-berthe, calais, 62100, france","cuisine":"poissons et fruits de mer"},{"lat":"43.7818255","lon":"4.0878753","url":"https://guide.michelin.com//fr/fr/occitanie/sommires/restaurant/le-patio-by-lou-caleou","name":"le patio by lou caléou","address":"23 place de la libération, sommières, 30250, france","cuisine":"moderne"},{"lat":"48.600826","lon":"-1.4196858","url":"https://guide.michelin.com//fr/fr/normandie/servon/restaurant/auberge-du-terroir","name":"auberge du terroir","address":"le bourg, servon, 50170, france","cuisine":"traditionnelle"},{"lat":"46.1570565","lon":"6.6665858","url":"https://guide.michelin.com//fr/fr/auvergne-rhone-alpes/les-gets/restaurant/l-as-des-neiges","name":"l'as des neiges","address":"624 rue du centre, les gets, 74260, france","cuisine":"moderne"},{"lat":"44.1904313","lon":"3.2093038","url":"https://guide.michelin.com//fr/fr/occitanie/le-rozier/restaurant/l-alicanta","name":"l'alicanta","address":"route de meyrueis, le rozier, 48150, france","cuisine":"moderne"},{"lat":"47.3819845","lon":"0.5747432","url":"https://guide.michelin.com//fr/fr/centre-val-de-loire/fondettes/restaurant/auberge-de-port-vallieres","name":"auberge de port vallières","address":"195 quai des bateliers, fondettes, 37230, france","cuisine":"traditionnelle"},{"lat":"45.44951","lon":"7.00929","url":"https://guide.michelin.com//fr/fr/auvergne-rhone-alpes/val-d-isre/restaurant/bistrot-gourmand","name":"bistrot gourmand","address":"le fornet, val-d'isère, 73150, france","cuisine":"traditionnelle"},{"lat":"48.52838","lon":"7.71048","url":"https://guide.michelin.com//fr/fr/grand-est/illkirch-graffenstaden/restaurant/estaminet-a-l-agneau","name":"estaminet à l'agneau","address":"185 route de lyon, illkirch-graffenstaden, 67400, france","cuisine":"traditionnelle"},{"lat":"42.6328566","lon":"2.7567806","url":"https://guide.michelin.com//fr/fr/occitanie/thuir/restaurant/arbequina465614","name":"arbequina","address":"21 rue de la république, thuir, 66300, france","cuisine":"moderne"},{"lat":"49.7950025","lon":"4.7498852","url":"https://guide.michelin.com//fr/fr/grand-est/montcy-notre-dame/restaurant/l-auberge-du-laminak","name":"l'auberge du laminak","address":"route de nouzonville, montcy-notre-dame, 08090, france","cuisine":"moderne"},{"lat":"48.5802845","lon":"-2.1445203","url":"https://guide.michelin.com//fr/fr/bretagne/ploubalay/restaurant/restaurant-de-la-gare","name":"restaurant de la gare","address":"4 rue des ormelets, ploubalay, 22650, france","cuisine":"moderne"},{"lat":"43.6008434","lon":"6.9965925","url":"https://guide.michelin.com//fr/fr/provence-alpes-cote-dazur/mougins/restaurant/l-amandier-de-mougins","name":"l'amandier de mougins","address":"48 avenue jean-charles-mallet, mougins, 06250, france","cuisine":"provençale"},{"lat":"43.7647665","lon":"1.7592759","url":"https://guide.michelin.com//fr/fr/occitanie/saint-lieux-ls-lavaur/restaurant/le-colvert63526","name":"le colvert","address":"8 rue d'en boyer, saint-lieux-lès-lavaur, 81500, france","cuisine":"moderne"},{"lat":"49.2246391","lon":"2.5115757","url":"https://guide.michelin.com//fr/fr/hauts-de-france/apremont/restaurant/auberge-la-grange-aux-loups","name":"auberge la grange aux loups","address":"8 rue du 11-novembre, apremont, 60300, france","cuisine":"classique"},{"lat":"47.7631497","lon":"-3.2874397","url":"https://guide.michelin.com//fr/fr/bretagne/kervignac/restaurant/chai-l-amere-kolette","name":"chai l'amère kolette","address":"parc d'activités de kernours, kervignac, 56700, france","cuisine":"traditionnelle"},{"lat":"48.5915762","lon":"6.1660349","url":"https://guide.michelin.com//fr/fr/grand-est/richardmnil/restaurant/le-bon-accueil","name":"le bon accueil","address":"1 rue de laval, richardménil, 54630, france","cuisine":"moderne"},{"lat":"48.8803734","lon":"2.2397098","url":"https://guide.michelin.com//fr/fr/ile-de-france/puteaux/restaurant/saperlipopette","name":"saperlipopette !","address":"9 place du théâtre, puteaux, 92800, france","cuisine":"moderne"},{"lat":"43.5716685","lon":"7.0145284","url":"https://guide.michelin.com//fr/fr/provence-alpes-cote-dazur/le-cannet/restaurant/bistrot-des-anges","name":"bistrot des anges","address":"rue de l'ouest, le cannet, 06110, france","cuisine":"traditionnelle"},{"lat":"45.80022","lon":"2.99198","url":"https://guide.michelin.com//fr/fr/auvergne-rhone-alpes/orcines/restaurant/auberge-de-la-fontaine-du-berger","name":"auberge de la fontaine du berger","address":"167 route de limoges, orcines, 63870, france","cuisine":"traditionnelle"},{"lat":"47.2087675","lon":"0.9991615","url":"https://guide.michelin.com//fr/fr/centre-val-de-loire/chdigny/restaurant/le-clos-aux-roses","name":"le clos aux roses","address":"2 rue du lavoir, chédigny, 37310, france","cuisine":"moderne"},{"lat":"44.3488742","lon":"2.036932","url":"https://guide.michelin.com//fr/fr/occitanie/villefranche-de-rouergue/restaurant/l-univers","name":"l'univers","address":"place de la république, villefranche-de-rouergue, 12200, france","cuisine":"créative"},{"lat":"47.13114","lon":"-1.43327","url":"https://guide.michelin.com//fr/fr/pays-de-la-loire/chteau-thbaud/restaurant/auberge-la-gaillotiere","name":"auberge la gaillotière","address":"lieu-dit la gaillotière, château-thébaud, 44690, france","cuisine":"traditionnelle"},{"lat":"43.60135","lon":"-1.0053983","url":"https://guide.michelin.com//fr/fr/nouvelle-aquitaine/pouillon/restaurant/l-auberge-du-pas-de-vent","name":"l'auberge du pas de vent","address":"281 avenue pas-de-vent, pouillon, 40350, france","cuisine":"traditionnelle"},{"lat":"47.0561382","lon":"-1.5131743","url":"https://guide.michelin.com//fr/fr/pays-de-la-loire/geneston/restaurant/le-pelican","name":"le pélican","address":"13 place georges-gaudet, geneston, 44140, france","cuisine":"moderne"},{"lat":"44.8550026","lon":"-0.573945","url":"https://guide.michelin.com//fr/fr/nouvelle-aquitaine/bordeaux/restaurant/le-cent-33","name":"le cent 33","address":"139 rue du jardin-public, bordeaux, 33000, france","cuisine":"créative"},{"lat":"50.7538583","lon":"2.6403767","url":"https://guide.michelin.com//fr/fr/hauts-de-france/castre/restaurant/l-auberge","name":"l'auberge...","address":"2590 route de bailleul, caëstre, 59190, france","cuisine":"moderne"},{"lat":"44.8474767","lon":"0.4826236","url":"https://guide.michelin.com//fr/fr/nouvelle-aquitaine/bergerac/restaurant/le-bistro-d-en-face","name":"le bistro d'en face","address":"1 rue fénelon, bergerac, 24100, france","cuisine":"moderne"},{"lat":"44.521423","lon":"5.151026","url":"https://guide.michelin.com//fr/fr/auvergne-rhone-alpes/vesc/restaurant/chez-mon-jules","name":"chez mon jules","address":"5 rue étienne-de-vesc, vesc, 26220, france","cuisine":"du terroir"},{"lat":"44.8403448","lon":"0.2223091","url":"https://guide.michelin.com//fr/fr/nouvelle-aquitaine/sainte-foy-la-grande/restaurant/cote-bastide","name":"côté bastide","address":"4 rue de l'abattoir, sainte-foy-la-grande, 33220, france","cuisine":"moderne"},{"lat":"47.512344","lon":"-2.8450733","url":"https://guide.michelin.com//fr/fr/bretagne/saint-gildas-de-rhuys/restaurant/le-vert-d-o","name":"le vert d'o","address":"94 rue de guernevé, saint-gildas-de-rhuys, 56730, france","cuisine":"moderne"},{"lat":"43.1754672","lon":"-1.3487172","url":"https://guide.michelin.com//fr/fr/nouvelle-aquitaine/saint-tienne-de-bagorry/restaurant/restaurant-arce","name":"restaurant arcé","address":"route du col d'ispéguy, saint-étienne-de-baïgorry, 64430, france","cuisine":"traditionnelle"},{"lat":"48.0741413","lon":"7.2340804","url":"https://guide.michelin.com//fr/fr/grand-est/zimmerbach/restaurant/au-raisin-d-or","name":"au raisin d'or","address":"1 rue de l'église, zimmerbach, 68230, france","cuisine":"traditionnelle"},{"lat":"49.927124","lon":"1.083655","url":"https://guide.michelin.com//fr/fr/normandie/dieppe/restaurant/bistrot-du-pollet","name":"bistrot du pollet","address":"23 rue tête-de-boeuf, dieppe, 76200, france","cuisine":"poissons et fruits de mer"},{"lat":"43.35137","lon":"2.95401","url":"https://guide.michelin.com//fr/fr/occitanie/cruzy/restaurant/le-terminus","name":"le terminus","address":"avenue de la gare, cruzy, 34310, france","cuisine":"traditionnelle"},{"lat":"45.7577231","lon":"6.5439589","url":"https://guide.michelin.com//fr/fr/auvergne-rhone-alpes/les-saisies/restaurant/la-table-des-armaillis","name":"la table des armaillis","address":"97 rue des prés, les saisies, 73620, france","cuisine":"moderne"},{"lat":"45.750286","lon":"-0.662786","url":"https://guide.michelin.com//fr/fr/nouvelle-aquitaine/saintes/restaurant/la-table-du-relais-du-bois-st-georges","name":"la table du relais du bois st-georges","address":"132 cours genet, saintes, 17100, france","cuisine":"moderne"},{"lat":"46.6003467","lon":"5.8550159","url":"https://guide.michelin.com//fr/fr/bourgogne-franche-comte/bonlieu/restaurant/la-poutre","name":"la poutre","address":"25 grande-rue, bonlieu, 39130, france","cuisine":"moderne"},{"lat":"47.7934395","lon":"-4.286409","url":"https://guide.michelin.com//fr/fr/bretagne/guilvinec/restaurant/le-poisson-d-avril","name":"le poisson d'avril","address":"19 rue de men-meur, guilvinec, 29730, france","cuisine":"moderne"},{"lat":"45.92304","lon":"6.870587","url":"https://guide.michelin.com//fr/fr/auvergne-rhone-alpes/chamonix-mont-blanc/restaurant/la-telecabine","name":"la télécabine","address":"27 rue de la tour, chamonix-mont-blanc, 74400, france","cuisine":"traditionnelle"},{"lat":"42.5224669","lon":"2.9358838","url":"https://guide.michelin.com//fr/fr/occitanie/laroque-des-albres/restaurant/cote-saisons","name":"côté saisons","address":"10 avenue de la côte-vermeille, laroque-des-albères, 66740, france","cuisine":"moderne"},{"lat":"43.46048","lon":"-1.33373","url":"https://guide.michelin.com//fr/fr/nouvelle-aquitaine/briscous/restaurant/maison-joanto","name":"maison joanto","address":"chemin du village, briscous, 64240, france","cuisine":"moderne"},{"lat":"48.9073319","lon":"2.240886","url":"https://guide.michelin.com//fr/fr/ile-de-france/la-garenne-colombes/restaurant/le-saint-joseph","name":"le saint joseph","address":"100 boulevard de la république, la garenne-colombes, 92250, france","cuisine":"moderne"},{"lat":"46.112577","lon":"4.730171","url":"https://guide.michelin.com//fr/fr/auvergne-rhone-alpes/belleville-auvergne-rhone-alpes/restaurant/le-beaujolais","name":"le beaujolais","address":"40 rue du maréchal-foch, belleville, 69220, france","cuisine":"traditionnelle"},{"lat":"45.1423694","lon":"5.8309979","url":"https://guide.michelin.com//fr/fr/auvergne-rhone-alpes/saint-martin-d-uriage/restaurant/cafe-a","name":"café a","address":"280 allée du jeune-bayard, saint-martin-d'uriage, 38410, france","cuisine":"moderne"},{"lat":"46.4254309","lon":"4.6652795","url":"https://guide.michelin.com//fr/fr/bourgogne-franche-comte/cluny/restaurant/hostellerie-d-heloise","name":"hostellerie d'héloïse","address":"7 route de mâcon, cluny, 71250, france","cuisine":"traditionnelle"},{"lat":"48.858815","lon":"2.3861243","url":"https://guide.michelin.com//fr/fr/ile-de-france/paris/restaurant/tempi-lenti","name":"tempi lenti","address":"13 rue gerbier, paris, 75011, france","cuisine":"italienne"},{"lat":"44.03993","lon":"0.89046","url":"https://guide.michelin.com//fr/fr/occitanie/bardigues/restaurant/auberge-de-bardigues","name":"auberge de bardigues","address":"le bourg, bardigues, 82340, france","cuisine":"moderne"},{"lat":"44.50382","lon":"1.1379848","url":"https://guide.michelin.com//fr/fr/occitanie/puy-l-vque/restaurant/le-medieval","name":"le médiéval","address":"24 grand'rue, puy-l'évêque, 46700, france","cuisine":"moderne"},{"lat":"42.59878","lon":"8.90319","url":"https://guide.michelin.com//fr/fr/corse/fr-pigna/restaurant/a-mandria-di-pigna","name":"a mandria di pigna","address":"pigna, 20220, france","cuisine":"corse"},{"lat":"44.81262","lon":"1.21018","url":"https://guide.michelin.com//fr/fr/nouvelle-aquitaine/la-roque-gageac/restaurant/o-plaisir-des-sens","name":"o'plaisir des sens","address":"sous la grande vigne, la roque-gageac, 24250, france","cuisine":"moderne"},{"lat":"48.551617","lon":"-0.508416","url":"https://guide.michelin.com//fr/fr/normandie/juvigny-sous-andaine/restaurant/au-bon-accueil3941","name":"au bon accueil","address":"23 place st-michel, juvigny-sous-andaine, 61140, france","cuisine":"créative"},{"lat":"47.5358312","lon":"7.2648374","url":"https://guide.michelin.com//fr/fr/grand-est/feldbach/restaurant/cheval-blanc","name":"cheval blanc","address":"1 rue de bisel, feldbach, 68640, france","cuisine":"traditionnelle"},{"lat":"49.0965166","lon":"7.1827032","url":"https://guide.michelin.com//fr/fr/grand-est/wlfling-ls-sarreguemines/restaurant/restaurant-dimofski","name":"restaurant dimofski","address":"2 quartier de la gare, wœlfling-lès-sarreguemines, 57200, france","cuisine":"actuelle"},{"lat":"43.5212561","lon":"-1.1974514","url":"https://guide.michelin.com//fr/fr/nouvelle-aquitaine/guiche/restaurant/le-gantxo","name":"le gantxo","address":"quartier du port, guiche, 64520, france","cuisine":"moderne"},{"lat":"44.3545763","lon":"2.0306766","url":"https://guide.michelin.com//fr/fr/occitanie/villefranche-de-rouergue/restaurant/cote-saveurs262844","name":"côté saveurs","address":"place louis fontanges, villefranche-de-rouergue, 12200, france","cuisine":"moderne"},{"lat":"46.88357","lon":"5.76026","url":"https://guide.michelin.com//fr/fr/bourgogne-franche-comte/pupillin/restaurant/le-grapiot","name":"le grapiot","address":"3 rue bagier, pupillin, 39600, france","cuisine":"moderne"},{"lat":"44.38784","lon":"5.196091","url":"https://guide.michelin.com//fr/fr/auvergne-rhone-alpes/condorcet/restaurant/la-charrette-bleue","name":"la charrette bleue","address":"5 chemin barjavel, condorcet, 26110, france","cuisine":"traditionnelle"},{"lat":"48.8716343","lon":"2.3787074","url":"https://guide.michelin.com//fr/fr/ile-de-france/paris/restaurant/le-grand-bain","name":"le grand bain","address":"14 rue dénoyez, paris, 75020, france","cuisine":"moderne"},{"lat":"43.2945163","lon":"-0.3720494","url":"https://guide.michelin.com//fr/fr/nouvelle-aquitaine/fr-pau/restaurant/lou-esberit","name":"lou esberit","address":"8 rue adoue, pau, 64000, france","cuisine":"moderne"},{"lat":"51.0037031","lon":"2.3827136","url":"https://guide.michelin.com//fr/fr/hauts-de-france/coudekerque-branche/restaurant/le-soubise","name":"le soubise","address":"49 route de bergues, coudekerque-branche, 59210, france","cuisine":"classique"},{"lat":"46.8718586","lon":"-1.0131786","url":"https://guide.michelin.com//fr/fr/pays-de-la-loire/les-herbiers/restaurant/l-envers-du-decor","name":"l'envers du décor","address":"23  rue de la bienfaisance, les herbiers, 85500, france","cuisine":"moderne"},{"lat":"49.4925652","lon":"0.1009955","url":"https://guide.michelin.com//fr/fr/normandie/le-havre/restaurant/le-bouche-a-oreille531147","name":"le bouche à oreille","address":"19 rue paul-doumer, le havre, 76600, france","cuisine":"moderne"},{"lat":"45.9177584","lon":"6.8700563","url":"https://guide.michelin.com//fr/fr/auvergne-rhone-alpes/chamonix-mont-blanc/restaurant/akashon","name":"akashon","address":"50 place de l'aiguille-du-midi, chamonix-mont-blanc, 74400, france","cuisine":"moderne"},{"lat":"47.0007779","lon":"-2.2426451","url":"https://guide.michelin.com//fr/fr/pays-de-la-loire/noirmoutier-en-l-le/restaurant/l-assiette-au-jardin","name":"l'assiette au jardin","address":"9 rue du robinet, noirmoutier-en-l'île, 85330, france","cuisine":"moderne"},{"lat":"43.9245387","lon":"2.148724","url":"https://guide.michelin.com//fr/fr/occitanie/albi/restaurant/l-epicurien66531","name":"l'épicurien","address":"42 place jean-jaurès, albi, 81000, france","cuisine":"moderne"},{"lat":"45.1856667","lon":"0.7208709","url":"https://guide.michelin.com//fr/fr/nouvelle-aquitaine/prigueux/restaurant/l-atelier1185075","name":"l'atelier","address":"2 rue voltaire, périgueux, 24000, france","cuisine":"moderne"},{"lat":"48.0414345","lon":"7.1425936","url":"https://guide.michelin.com//fr/fr/grand-est/fr-munster/restaurant/les-grands-arbres-verte-vallee","name":"les grands arbres - verte vallée","address":"10 rue alfred-hartmann, munster, 68140, france","cuisine":"moderne"},{"lat":"49.2776278","lon":"-0.7008366","url":"https://guide.michelin.com//fr/fr/normandie/bayeux/restaurant/l-angle-saint-laurent","name":"l'angle saint-laurent","address":"2 rue des bouchers, bayeux, 14400, france","cuisine":"moderne"},{"lat":"50.34263","lon":"1.83437","url":"https://guide.michelin.com//fr/fr/hauts-de-france/argoules/restaurant/auberge-du-coq-en-pate","name":"auberge du coq-en-pâte","address":"37 grande-rue, argoules, 80120, france","cuisine":"traditionnelle"},{"lat":"43.732968","lon":"0.2525508","url":"https://guide.michelin.com//fr/fr/occitanie/prneron/restaurant/auberge-la-baquere","name":"auberge la baquère","address":"lieu-dit la baquère, préneron, 32190, france","cuisine":"traditionnelle"},{"lat":"45.7454483","lon":"-0.6247263","url":"https://guide.michelin.com//fr/fr/nouvelle-aquitaine/saintes/restaurant/saveurs-de-l-abbaye","name":"saveurs de l'abbaye","address":"1 place st-pallais, saintes, 17100, france","cuisine":"du marché"},{"lat":"48.8598845","lon":"2.2193276","url":"https://guide.michelin.com//fr/fr/ile-de-france/suresnes/restaurant/les-petits-princes","name":"les petits princes","address":"26 rue du val-d'or, suresnes, 92150, france","cuisine":"moderne"},{"lat":"47.0035036","lon":"5.8234481","url":"https://guide.michelin.com//fr/fr/bourgogne-franche-comte/port-lesney/restaurant/le-bistrot-pontarlier","name":"le bistrot pontarlier","address":"place du 8-mai-1945, port-lesney, 39330, france","cuisine":"traditionnelle"},{"lat":"45.7683132","lon":"4.8477338","url":"https://guide.michelin.com//fr/fr/auvergne-rhone-alpes/lyon/restaurant/le-jean-moulin","name":"le jean moulin","address":"45 rue de sèze, lyon, 69006, france","cuisine":"moderne"},{"lat":"45.7779109","lon":"3.0811448","url":"https://guide.michelin.com//fr/fr/auvergne-rhone-alpes/clermont-ferrand/restaurant/le-bistrot-d-a-cote","name":"le bistrot d'à côté","address":"16 rue des minimes, clermont-ferrand, 63000, france","cuisine":"moderne"},{"lat":"43.76058","lon":"5.303","url":"https://guide.michelin.com//fr/fr/provence-alpes-cote-dazur/lauris/restaurant/la-cuisine-d-amelie","name":"la cuisine d'amélie","address":"route de roquefraiche, lauris, 84360, france","cuisine":"moderne"},{"lat":"45.3237127","lon":"5.2776336","url":"https://guide.michelin.com//fr/fr/auvergne-rhone-alpes/bressieux/restaurant/auberge-du-chateau","name":"auberge du château","address":"67 montée du château, bressieux, 38870, france","cuisine":"moderne"},{"lat":"43.5501","lon":"5.03234","url":"https://guide.michelin.com//fr/fr/provence-alpes-cote-dazur/saint-chamas/restaurant/le-rabelais","name":"le rabelais","address":"8 rue auguste-fabre, saint-chamas, 13250, france","cuisine":"moderne"},{"lat":"48.36384","lon":"7.42756","url":"https://guide.michelin.com//fr/fr/grand-est/itterswiller/restaurant/winstub-arnold","name":"winstub arnold","address":"98 route des vins, itterswiller, 67140, france","cuisine":"alsacienne"},{"lat":"46.3846248","lon":"5.3457475","url":"https://guide.michelin.com//fr/fr/auvergne-rhone-alpes/coligny/restaurant/au-petit-relais","name":"au petit relais","address":"grande-rue, coligny, 01270, france","cuisine":"traditionnelle"},{"lat":"45.6931279","lon":"-0.3256814","url":"https://guide.michelin.com//fr/fr/nouvelle-aquitaine/cognac/restaurant/la-maison","name":"la maison","address":"1 rue du 14-juillet, cognac, 16100, france","cuisine":"moderne"},{"lat":"48.7004448","lon":"6.1781092","url":"https://guide.michelin.com//fr/fr/grand-est/nancy/restaurant/madame","name":"madame","address":"52 rue henri-deglin, nancy, 54000, france","cuisine":"moderne"},{"lat":"48.314106","lon":"4.0985415","url":"https://guide.michelin.com//fr/fr/grand-est/pont-sainte-marie/restaurant/bistrot-dupont","name":"bistrot dupont","address":"5 place charles-de-gaulle, pont-sainte-marie, 10150, france","cuisine":"traditionnelle"},{"lat":"44.9436083","lon":"4.8413832","url":"https://guide.michelin.com//fr/fr/bourgogne-franche-comte/saint-pray/restaurant/la-ruche","name":"la ruche","address":"13 quai du docteur-jules-bouvat, saint-péray, 07130, france","cuisine":"moderne"},{"lat":"48.07132","lon":"2.13455","url":"https://guide.michelin.com//fr/fr/centre-val-de-loire/chilleurs-aux-bois/restaurant/le-lancelot","name":"le lancelot","address":"12 rue des déportés, chilleurs-aux-bois, 45170, france","cuisine":"moderne"},{"lat":"43.1082847","lon":"5.9403663","url":"https://guide.michelin.com//fr/fr/provence-alpes-cote-dazur/toulon/restaurant/le-local","name":"le local","address":"455 littoral frédéric-mistral, toulon, 83000, france","cuisine":"moderne"},{"lat":"48.8795129","lon":"2.3521222","url":"https://guide.michelin.com//fr/fr/ile-de-france/paris/restaurant/chez-michel","name":"chez michel","address":"10 rue de belzunce, paris, 75010, france","cuisine":"traditionnelle"},{"lat":"49.0894582","lon":"1.6067163","url":"https://guide.michelin.com//fr/fr/normandie/gasny/restaurant/auberge-du-prieure-normand","name":"auberge du prieuré normand","address":"1 place de la république, gasny, 27620, france","cuisine":"traditionnelle"},{"lat":"48.0680368","lon":"1.3299006","url":"https://guide.michelin.com//fr/fr/centre-val-de-loire/chteaudun/restaurant/aux-trois-pastoureaux","name":"aux trois pastoureaux","address":"31 rue andré-gillet, châteaudun, 28200, france","cuisine":"traditionnelle"},{"lat":"47.5058772","lon":"6.8644355","url":"https://guide.michelin.com//fr/fr/bourgogne-franche-comte/tupes/restaurant/au-fil-des-saisons","name":"au fil des saisons","address":"3 rue de la libération, étupes, 25460, france","cuisine":"moderne"},{"lat":"48.00006","lon":"6.8708228","url":"https://guide.michelin.com//fr/fr/grand-est/la-bresse/restaurant/la-table-d-angele","name":"la table d'angèle","address":"30 grande-rue, la bresse, 88250, france","cuisine":"moderne"},{"lat":"42.7347741","lon":"9.4347259","url":"https://guide.michelin.com//fr/fr/corse/san-martino-di-lota/restaurant/la-corniche","name":"la corniche","address":"hameau de castagneto, san-martino-di-lota, 20200, france","cuisine":"corse"},{"lat":"45.518271","lon":"1.4224623","url":"https://guide.michelin.com//fr/fr/nouvelle-aquitaine/montgibaud/restaurant/le-tilleul-de-sully","name":"le tilleul de sully","address":"le bourg, montgibaud, 19210, france","cuisine":"moderne"},{"lat":"47.45812","lon":"-0.6579","url":"https://guide.michelin.com//fr/fr/pays-de-la-loire/saint-jean-de-linires/restaurant/auberge-de-la-roche","name":"auberge de la roche","address":"10 route nationale 23, saint-jean-de-linières, 49070, france","cuisine":"moderne"},{"lat":"48.1007117","lon":"7.1940112","url":"https://guide.michelin.com//fr/fr/grand-est/labaroche/restaurant/la-rochette","name":"la rochette","address":"500 lieu-dit la rochette, labaroche, 68910, france","cuisine":"moderne"},{"lat":"43.2944753","lon":"5.38468","url":"https://guide.michelin.com//fr/fr/provence-alpes-cote-dazur/marseille/restaurant/l-arome508665","name":"l'arôme","address":"9 rue des 3 rois, marseille, 13006, france","cuisine":"moderne"},{"lat":"48.8680983","lon":"2.3685454","url":"https://guide.michelin.com//fr/fr/ile-de-france/paris/restaurant/auberge-pyrenees-cevennes","name":"auberge pyrénées cévennes","address":"106 rue de la folie-méricourt, paris, 75011, france","cuisine":"traditionnelle"},{"lat":"44.7346499","lon":"4.5992499","url":"https://guide.michelin.com//fr/fr/auvergne-rhone-alpes/privas/restaurant/la-boria","name":"la boria","address":"3 cours du palais, privas, 07000, france","cuisine":"moderne"},{"lat":"47.39894","lon":"-2.46019","url":"https://guide.michelin.com//fr/fr/pays-de-la-loire/mesquer/restaurant/la-vieille-forge","name":"la vieille forge","address":"32 rue d'aha, mesquer, 44420, france","cuisine":"moderne"},{"lat":"49.5816199","lon":"1.0907513","url":"https://guide.michelin.com//fr/fr/normandie/clres/restaurant/auberge-du-moulin","name":"auberge du moulin","address":"36 rue des moulins-du-tot, clères, 76690, france","cuisine":"moderne"},{"lat":"46.2356555","lon":"3.4258809","url":"https://guide.michelin.com//fr/fr/auvergne-rhone-alpes/billy/restaurant/auberge-du-pont","name":"auberge du pont","address":"1 route de marcenat, billy, 03260, france","cuisine":"moderne"},{"lat":"46.4851301","lon":"0.1848401","url":"https://guide.michelin.com//fr/fr/nouvelle-aquitaine/coulombiers/restaurant/auberge-le-centre-poitou","name":"auberge le centre poitou","address":"39 rue nationale, coulombiers, 86600, france","cuisine":"traditionnelle"},{"lat":"50.3358","lon":"3.003453","url":"https://guide.michelin.com//fr/fr/hauts-de-france/brebires/restaurant/air-accueil","name":"air accueil","address":"50 rue nationale, brebières, 62117, france","cuisine":"moderne"},{"lat":"49.2005771","lon":"-0.3189408","url":"https://guide.michelin.com//fr/fr/normandie/hrouville-saint-clair/restaurant/l-esperance-stephane-carbone","name":"l'espérance - stéphane carbone","address":"512 rue abbé-alix, hérouville-saint-clair, 14200, france","cuisine":"moderne"},{"lat":"48.1155524","lon":"-1.6072244","url":"https://guide.michelin.com//fr/fr/bretagne/cesson-svign/restaurant/zest505150","name":"zest","address":"32 cours de la vilaine, cesson-sévigné, 35510, france","cuisine":"moderne"},{"lat":"43.9295506","lon":"5.4246554","url":"https://guide.michelin.com//fr/fr/provence-alpes-cote-dazur/villars/restaurant/la-table-de-pablo","name":"la table de pablo","address":"hameau les petits-cléments, villars, 84400, france","cuisine":"moderne"},{"lat":"48.87035","lon":"2.31057","url":"https://guide.michelin.com//fr/fr/ile-de-france/paris/restaurant/kisin","name":"kisin","address":"9 rue de ponthieu, paris, 75008, france","cuisine":"japonaise"},{"lat":"48.8721222","lon":"2.3540461","url":"https://guide.michelin.com//fr/fr/ile-de-france/paris/restaurant/52-faubourg-st-denis","name":"52 faubourg st-denis","address":"52 rue du faubourg-st-denis, paris, 75010, france","cuisine":"moderne"},{"lat":"43.5991968","lon":"1.444129","url":"https://guide.michelin.com//fr/fr/occitanie/toulouse/restaurant/monsieur","name":"monsieur","address":"40 rue des filatiers, toulouse, 31000, france","cuisine":"moderne"},{"lat":"49.28358","lon":"-0.25908","url":"https://guide.michelin.com//fr/fr/normandie/ouistreham/restaurant/la-table-d-hotes","name":"la table d'hôtes","address":"10 avenue du général-leclerc, ouistreham, 14150, france","cuisine":"moderne"},{"lat":"44.2056155","lon":"0.6177651","url":"https://guide.michelin.com//fr/fr/nouvelle-aquitaine/agen/restaurant/l-affranchi","name":"l'affranchi","address":"33 rue des cornières, agen, 47000, france","cuisine":"moderne"},{"lat":"47.5119044","lon":"3.8414123","url":"https://guide.michelin.com//fr/fr/bourgogne-franche-comte/valloux/restaurant/auberge-des-chenets","name":"auberge des chenêts","address":"10 route nationale 6, valloux, 89200, france","cuisine":"traditionnelle"},{"lat":"48.6479529","lon":"-2.0253125","url":"https://guide.michelin.com//fr/fr/bretagne/saint-malo/restaurant/le-comptoir-breizh-cafe","name":"le comptoir breizh café","address":"6 rue de l'orme, saint-malo, 35400, france","cuisine":"bretonne"},{"lat":"43.5762842","lon":"7.0213674","url":"https://guide.michelin.com//fr/fr/provence-alpes-cote-dazur/le-cannet/restaurant/bistrot-st-sauveur","name":"bistrot st-sauveur","address":"87 rue saint-sauveur, le cannet, 06110, france","cuisine":"traditionnelle"},{"lat":"43.6008872","lon":"1.4406884","url":"https://guide.michelin.com//fr/fr/occitanie/toulouse/restaurant/nino","name":"nino","address":"28 rue peyrolières, toulouse, 31000, france","cuisine":"moderne"},{"lat":"45.0658115","lon":"4.8333564","url":"https://guide.michelin.com//fr/fr/auvergne-rhone-alpes/tournon-sur-rhne/restaurant/le-cerisier","name":"le cerisier","address":"1 rue saint-joseph, tournon-sur-rhône, 07300, france","cuisine":"moderne"},{"lat":"43.92045","lon":"5.1314006","url":"https://guide.michelin.com//fr/fr/provence-alpes-cote-dazur/fontaine-de-vaucluse/restaurant/philip","name":"philip","address":"chemin de la fontaine, fontaine-de-vaucluse, 84800, france","cuisine":"traditionnelle"},{"lat":"50.6872452","lon":"3.0527574","url":"https://guide.michelin.com//fr/fr/hauts-de-france/wambrechies/restaurant/balsamique","name":"balsamique","address":"13 place du général-de-gaulle, wambrechies, 59118, france","cuisine":"moderne"},{"lat":"47.89936","lon":"1.9066","url":"https://guide.michelin.com//fr/fr/centre-val-de-loire/orleans/restaurant/la-parenthese","name":"la parenthèse","address":"26 place du châtelet, orléans, 45000, france","cuisine":"traditionnelle"},{"lat":"49.56913","lon":"3.62182","url":"https://guide.michelin.com//fr/fr/hauts-de-france/laon/restaurant/zorn-la-petite-auberge","name":"zorn - la petite auberge","address":"45 boulevard pierre-brossolette, laon, 02000, france","cuisine":"moderne"},{"lat":"44.20324","lon":"4.94576","url":"https://guide.michelin.com//fr/fr/provence-alpes-cote-dazur/cairanne/restaurant/coteaux-et-fourchettes","name":"coteaux et fourchettes","address":"route de violès, cairanne, 84290, france","cuisine":"moderne"},{"lat":"45.6735609","lon":"-0.2244992","url":"https://guide.michelin.com//fr/fr/nouvelle-aquitaine/bourg-charente/restaurant/la-table-du-fleuve","name":"la table du fleuve","address":"2 place du port, bourg-charente, 16200, france","cuisine":"du marché"},{"lat":"48.64676","lon":"-2.02574","url":"https://guide.michelin.com//fr/fr/bretagne/saint-malo/restaurant/le-bistrot-du-rocher","name":"le bistrot du rocher","address":"19 rue de toulouse, saint-malo, 35400, france","cuisine":"traditionnelle"},{"lat":"43.40585","lon":"3.699485","url":"https://guide.michelin.com//fr/fr/occitanie/ste/restaurant/paris-mediterranee","name":"paris méditerranée","address":"47 rue pierre-semard, sète, 34200, france","cuisine":"moderne"},{"lat":"43.696531","lon":"7.2730239","url":"https://guide.michelin.com//fr/fr/provence-alpes-cote-dazur/nice/restaurant/la-merenda","name":"la merenda","address":"4 rue raoul-bosio, nice, 06000, france","cuisine":"provençale"},{"lat":"43.4713008","lon":"-0.9259031","url":"https://guide.michelin.com//fr/fr/nouvelle-aquitaine/salies-de-barn/restaurant/restaurant-des-voisins","name":"restaurant des voisins","address":"12 rue des voisins, salies-de-béarn, 64270, france","cuisine":"moderne"},{"lat":"43.6032","lon":"3.04556","url":"https://guide.michelin.com//fr/fr/occitanie/combes/restaurant/auberge-de-combes","name":"auberge de combes","address":"le bourg, combes, 34240, france","cuisine":"moderne"},{"lat":"44.20862","lon":"4.80087","url":"https://guide.michelin.com//fr/fr/provence-alpes-cote-dazur/uchaux/restaurant/cote-sud9177","name":"côté sud","address":"route d'orange, uchaux, 84100, france","cuisine":"moderne"},{"lat":"43.0027665","lon":"1.1373639","url":"https://guide.michelin.com//fr/fr/occitanie/saint-lizier/restaurant/le-carre-de-l-ange","name":"le carré de l'ange","address":"palais des évêques, saint-lizier, 09190, france","cuisine":"moderne"},{"lat":"42.6974636","lon":"2.8804252","url":"https://guide.michelin.com//fr/fr/occitanie/perpignan/restaurant/le-garriane","name":"le garriane","address":"15 rue valette, perpignan, 66000, france","cuisine":"moderne"},{"lat":"50.77801","lon":"1.751499","url":"https://guide.michelin.com//fr/fr/hauts-de-france/wierre-effroy/restaurant/la-ferme-du-vert","name":"la ferme du vert","address":"rue du vert, wierre-effroy, 62720, france","cuisine":"moderne"},{"lat":"45.76233","lon":"4.84729","url":"https://guide.michelin.com//fr/fr/auvergne-rhone-alpes/lyon/restaurant/daniel-et-denise-crequi","name":"daniel et denise créqui","address":"156 rue de créqui, lyon, 69003, france","cuisine":"lyonnaise"},{"lat":"45.9251353","lon":"6.8736882","url":"https://guide.michelin.com//fr/fr/auvergne-rhone-alpes/chamonix-mont-blanc/restaurant/la-maison-carrier","name":"la maison carrier","address":"44 route du bouchet, chamonix-mont-blanc, 74400, france","cuisine":"régionale"},{"lat":"48.8751739","lon":"2.3165102","url":"https://guide.michelin.com//fr/fr/ile-de-france/paris/restaurant/pomze","name":"pomze","address":"109 boulevard haussmann, paris, 75008, france","cuisine":"moderne"},{"lat":"43.8389664","lon":"4.3582738","url":"https://guide.michelin.com//fr/fr/occitanie/nimes/restaurant/la-pie-qui-couette","name":"la pie qui couette","address":"1 rue guizot, nîmes, 30000, france","cuisine":"méditerranéenne"},{"lat":"48.59634","lon":"7.71641","url":"https://guide.michelin.com//fr/fr/grand-est/strasbourg/restaurant/colbert449239","name":"colbert","address":"127 route de mittelhausbergen, strasbourg, 67200, france","cuisine":"moderne"},{"lat":"46.16167","lon":"-1.20278","url":"https://guide.michelin.com//fr/fr/nouvelle-aquitaine/la-rochelle/restaurant/la-cote-rotie","name":"la côte rôtie","address":"2 boulevard maréchal-lyautey, la rochelle, 17000, france","cuisine":"moderne"},{"lat":"49.4208139","lon":"0.232","url":"https://guide.michelin.com//fr/fr/normandie/honfleur/restaurant/le-breard","name":"le bréard","address":"7 rue du puits, honfleur, 14600, france","cuisine":"moderne"},{"lat":"45.14225","lon":"4.435643","url":"https://guide.michelin.com//fr/fr/auvergne-rhone-alpes/saint-bonnet-le-froid/restaurant/bistrot-la-coulemelle","name":"bistrot la coulemelle","address":"2 rue du fanget, saint-bonnet-le-froid, 43290, france","cuisine":"traditionnelle"},{"lat":"44.03304","lon":"-0.32239","url":"https://guide.michelin.com//fr/fr/nouvelle-aquitaine/roquefort/restaurant/le-st-vincent","name":"le st-vincent","address":"76 rue laubaner, roquefort, 40120, france","cuisine":"moderne"},{"lat":"48.8900054","lon":"2.3424488","url":"https://guide.michelin.com//fr/fr/ile-de-france/paris/restaurant/mokko","name":"mokko","address":"3 rue francoeur, paris, 75018, france","cuisine":"du marché"},{"lat":"48.86437","lon":"2.334635","url":"https://guide.michelin.com//fr/fr/ile-de-france/paris/restaurant/zen232528","name":"zen","address":"8 rue de l'échelle, paris, 75001, france","cuisine":"japonaise"},{"lat":"45.070235","lon":"4.8362144","url":"https://guide.michelin.com//fr/fr/auvergne-rhone-alpes/tain-l-hermitage/restaurant/le-quai","name":"le quai","address":"2 offres","cuisine":"traditionnelle"},{"lat":"46.126793","lon":"3.4238653","url":"https://guide.michelin.com//fr/fr/auvergne-rhone-alpes/vichy/restaurant/l-alambic","name":"l'alambic","address":"8 rue nicolas-larbaud, vichy, 03200, france","cuisine":"traditionnelle"},{"lat":"47.2260446","lon":"4.969274","url":"https://guide.michelin.com//fr/fr/bourgogne-franche-comte/gevrey-chambertin/restaurant/chez-guy","name":"chez guy","address":"3 place de la mairie, gevrey-chambertin, 21220, france","cuisine":"traditionnelle"},{"lat":"48.8872259","lon":"6.3915604","url":"https://guide.michelin.com//fr/fr/grand-est/delme/restaurant/a-la-12","name":"à la 12","address":"6 place de la république, delme, 57590, france","cuisine":"créative"},{"lat":"44.9347939","lon":"1.6079771","url":"https://guide.michelin.com//fr/fr/occitanie/martel/restaurant/relais-ste-anne","name":"relais ste-anne","address":"rue du pourtanel, martel, 46600, france","cuisine":"moderne"},{"lat":"46.1248938","lon":"3.4219482","url":"https://guide.michelin.com//fr/fr/auvergne-rhone-alpes/vichy/restaurant/la-table-d-antoine","name":"la table d'antoine","address":"1 offre","cuisine":"moderne"},{"lat":"46.1295483","lon":"3.4154961","url":"https://guide.michelin.com//fr/fr/auvergne-rhone-alpes/vichy/restaurant/la-table-de-marlene","name":"la table de marlène","address":"boulevard de lattre-de-tassigny, vichy, 03200, france","cuisine":"moderne"},{"lat":"47.68636","lon":"2.624855","url":"https://guide.michelin.com//fr/fr/centre-val-de-loire/gien/restaurant/le-p-tit-bouchon","name":"le p'tit bouchon","address":"66 rue bernard-palissy, gien, 45500, france","cuisine":"traditionnelle"},{"lat":"47.77101","lon":"-3.5254397","url":"https://guide.michelin.com//fr/fr/bretagne/guidel/restaurant/la-table-d-eux-laurent-le-berrigaud","name":"la table d'eux - laurent le berrigaud","address":"route côtière d152, guidel, 56520, france","cuisine":"moderne"},{"lat":"42.5052975","lon":"2.0433532","url":"https://guide.michelin.com//fr/fr/occitanie/font-romeu/restaurant/la-chaumiere38762","name":"la chaumière","address":"96 avenue emmanuel-brousse, font-romeu, 66120, france","cuisine":"catalane"},{"lat":"43.27178","lon":"5.38684","url":"https://guide.michelin.com//fr/fr/provence-alpes-cote-dazur/marseille/restaurant/otto496150","name":"otto","address":"150 rue jean-mermoz, marseille, 13008, france","cuisine":"méditerranéenne"},{"lat":"48.18641","lon":"0.650735","url":"https://guide.michelin.com//fr/fr/pays-de-la-loire/la-fert-bernard/restaurant/restaurant-du-dauphin","name":"restaurant du dauphin","address":"3 rue d'huisne, la ferté-bernard, 72400, france","cuisine":"moderne"},{"lat":"45.77707","lon":"3.08711","url":"https://guide.michelin.com//fr/fr/auvergne-rhone-alpes/clermont-ferrand/restaurant/un-grain-de-saveur","name":"un grain de saveur","address":"8 rue de l'abbé-girard, clermont-ferrand, 63000, france","cuisine":"moderne"},{"lat":"47.518524","lon":"-2.3025745","url":"https://guide.michelin.com//fr/fr/bretagne/la-roche-bernard/restaurant/auberge-des-deux-magots","name":"auberge des deux magots","address":"1 place du bouffay, la roche-bernard, 56130, france","cuisine":"moderne"},{"lat":"45.7515172","lon":"4.8515847","url":"https://guide.michelin.com//fr/fr/auvergne-rhone-alpes/lyon/restaurant/saku-restaurant","name":"saku restaurant","address":"27 rue rachais, lyon, 69007, france","cuisine":"moderne"},{"lat":"45.6426228","lon":"-1.0870948","url":"https://guide.michelin.com//fr/fr/nouvelle-aquitaine/saint-palais-sur-mer/restaurant/restaurant-de-la-plage260374","name":"restaurant de la plage","address":"1 place de l'océan, saint-palais-sur-mer, 17420, france","cuisine":"moderne"},{"lat":"48.57914","lon":"7.75044","url":"https://guide.michelin.com//fr/fr/grand-est/strasbourg/restaurant/au-pont-du-corbeau","name":"au pont du corbeau","address":"21 quai st-nicolas, strasbourg, 67000, france","cuisine":"alsacienne"},{"lat":"45.8990376","lon":"6.127509","url":"https://guide.michelin.com//fr/fr/auvergne-rhone-alpes/annecy/restaurant/1er-mets","name":"1er mets","address":"place saint-maurice, annecy, 74000, france","cuisine":"moderne"},{"lat":"45.77935","lon":"3.08635","url":"https://guide.michelin.com//fr/fr/auvergne-rhone-alpes/clermont-ferrand/restaurant/le-chardonnay","name":"le chardonnay","address":"1 place philippe-marcombes, clermont-ferrand, 63000, france","cuisine":"moderne"},{"lat":"47.4840381","lon":"-3.1119454","url":"https://guide.michelin.com//fr/fr/bretagne/quiberon/restaurant/la-chaumine","name":"la chaumine","address":"79 rue de port-haliguen, quiberon, 56170, france","cuisine":"traditionnelle"},{"lat":"48.8758985","lon":"2.3856352","url":"https://guide.michelin.com//fr/fr/ile-de-france/paris/restaurant/mensae","name":"mensae","address":"23 rue melingue, paris, 75019, france","cuisine":"moderne"},{"lat":"47.123817","lon":"6.200216","url":"https://guide.michelin.com//fr/fr/bourgogne-franche-comte/saules/restaurant/la-griotte","name":"la griotte","address":"3 rue des cerisiers, saules, 25580, france","cuisine":"traditionnelle"},{"lat":"49.4221162","lon":"0.2323132","url":"https://guide.michelin.com//fr/fr/normandie/honfleur/restaurant/la-fleur-de-sel3731","name":"la fleur de sel","address":"17 rue haute, honfleur, 14600, france","cuisine":"moderne"},{"lat":"48.8552315","lon":"2.401544","url":"https://guide.michelin.com//fr/fr/ile-de-france/paris/restaurant/la-vierge","name":"la vierge","address":"58 rue de la réunion, paris, 75020, france","cuisine":"moderne"},{"lat":"43.52685","lon":"3.93162","url":"https://guide.michelin.com//fr/fr/occitanie/palavas-les-flots/restaurant/le-st-georges431652","name":"le st-georges","address":"4 boulevard maréchal-foch, palavas-les-flots, 34250, france","cuisine":"moderne"},{"lat":"46.3218432","lon":"-0.5867812","url":"https://guide.michelin.com//fr/fr/nouvelle-aquitaine/coulon/restaurant/le-central2613","name":"le central","address":"4 rue d'autremont, coulon, 79510, france","cuisine":"moderne"},{"lat":"43.1967078","lon":"1.0162721","url":"https://guide.michelin.com//fr/fr/occitanie/martres-tolosane/restaurant/le-castet","name":"le castet","address":"44 avenue de la gare, martres-tolosane, 31220, france","cuisine":"moderne"},{"lat":"43.61037","lon":"3.8755226","url":"https://guide.michelin.com//fr/fr/occitanie/montpellier/restaurant/l-artichaut","name":"l'artichaut","address":"15 bis rue st-firmin, montpellier, 34000, france","cuisine":"moderne"},{"lat":"48.17402","lon":"6.4517593","url":"https://guide.michelin.com//fr/fr/grand-est/pinal/restaurant/in-extremis","name":"in extremis","address":"7 place de l'atre, épinal, 88000, france","cuisine":"moderne"},{"lat":"43.6962694","lon":"7.2718323","url":"https://guide.michelin.com//fr/fr/provence-alpes-cote-dazur/nice/restaurant/fine-gueule","name":"fine gueule","address":"2 rue de l'hôtel de ville, nice, 06300, france","cuisine":"traditionnelle"},{"lat":"43.6962726","lon":"7.2768402","url":"https://guide.michelin.com//fr/fr/provence-alpes-cote-dazur/nice/restaurant/bistrot-d-antoine","name":"bistrot d'antoine","address":"27 rue de la préfecture, nice, 06300, france","cuisine":"traditionnelle"},{"lat":"44.8484093","lon":"-0.5826356","url":"https://guide.michelin.com//fr/fr/nouvelle-aquitaine/bordeaux/restaurant/mets-mots","name":"mets mots","address":"98 rue fondaudège, bordeaux, 33000, france","cuisine":"traditionnelle"},{"lat":"49.025604","lon":"1.1458837","url":"https://guide.michelin.com//fr/fr/normandie/vreux/restaurant/la-gazette","name":"la gazette","address":"2 offres","cuisine":"moderne"},{"lat":"45.03292","lon":"4.06252","url":"https://guide.michelin.com//fr/fr/auvergne-rhone-alpes/saint-julien-chapteuil/restaurant/vidal","name":"vidal","address":"place du marché, saint-julien-chapteuil, 43260, france","cuisine":"du terroir"},{"lat":"48.7162882","lon":"2.490678","url":"https://guide.michelin.com//fr/fr/ile-de-france/yerres/restaurant/bird","name":"bird","address":"38 rue charles-de-gaulle, yerres, 91330, france","cuisine":"du marché"},{"lat":"44.46856","lon":"2.73242","url":"https://guide.michelin.com//fr/fr/occitanie/bozouls/restaurant/a-la-route-d-argent","name":"à la route d'argent","address":"1 route de gabriac, bozouls, 12340, france","cuisine":"traditionnelle"},{"lat":"45.7795175","lon":"4.8331468","url":"https://guide.michelin.com//fr/fr/auvergne-rhone-alpes/lyon/restaurant/substrat","name":"substrat","address":"7 rue pailleron, lyon, 69004, france","cuisine":"moderne"},{"lat":"44.5295602","lon":"3.4486142","url":"https://guide.michelin.com//fr/fr/occitanie/chabrits/restaurant/la-safraniere","name":"la safranière","address":"52 rue du lavoir, chabrits, 48000, france","cuisine":"moderne"},{"lat":"48.8699714","lon":"2.3607033","url":"https://guide.michelin.com//fr/fr/ile-de-france/paris/restaurant/les-resistants","name":"les résistants","address":"16 rue du château-d'eau, paris, 75010, france","cuisine":"moderne"},{"lat":"45.7674417","lon":"3.0558035","url":"https://guide.michelin.com//fr/fr/auvergne-rhone-alpes/royat/restaurant/la-fleche-d-argent","name":"la flèche d'argent","address":"5 place allard, royat, 63130, france","cuisine":"moderne"},{"lat":"48.891796","lon":"2.3460972","url":"https://guide.michelin.com//fr/fr/ile-de-france/paris/restaurant/le-reciproque","name":"le réciproque","address":"14 rue ferdinand-flocon, paris, 75018, france","cuisine":"traditionnelle"},{"lat":"43.6022865","lon":"1.4441196","url":"https://guide.michelin.com//fr/fr/occitanie/toulouse/restaurant/l-air-de-famille336979","name":"l'air de famille","address":"6 rue jules-chalande, toulouse, 31000, france","cuisine":"traditionnelle"},{"lat":"43.295387","lon":"5.382512","url":"https://guide.michelin.com//fr/fr/provence-alpes-cote-dazur/marseille/restaurant/la-cantinetta","name":"la cantinetta","address":"24 cours julien, marseille, 13006, france","cuisine":"italienne"},{"lat":"45.79213","lon":"-1.17944","url":"https://guide.michelin.com//fr/fr/nouvelle-aquitaine/la-tremblade/restaurant/la-plage-de-la-ribaudiere","name":"la plage de la ribaudière","address":"52  avenue de la cèpe, la tremblade, 17390, france","cuisine":"du marché"},{"lat":"43.45984","lon":"3.4266","url":"https://guide.michelin.com//fr/fr/occitanie/pzenas/restaurant/le-pre-st-jean","name":"le pré st-jean","address":"18 avenue maréchal-leclerc, pézenas, 34120, france","cuisine":"moderne"},{"lat":"48.8706592","lon":"2.3114589","url":"https://guide.michelin.com//fr/fr/ile-de-france/paris/restaurant/le-mermoz","name":"le mermoz","address":"16 rue jean-mermoz, paris, 75008, france","cuisine":"du marché"},{"lat":"49.3023239","lon":"-0.0776368","url":"https://guide.michelin.com//fr/fr/normandie/houlgate/restaurant/l-eden","name":"l'éden","address":"7 rue henri-fouchard, houlgate, 14510, france","cuisine":"moderne"},{"lat":"43.4496729","lon":"-1.5776412","url":"https://guide.michelin.com//fr/fr/nouvelle-aquitaine/bidart/restaurant/ahizpak-le-restaurant-des-s%C5%93urs","name":"ahizpak le restaurant des sœurs","address":"avenue de biarritz, bidart, 64210, france","cuisine":"moderne"},{"lat":"47.8469616","lon":"7.2199651","url":"https://guide.michelin.com//fr/fr/grand-est/berrwiller/restaurant/l-arbre-vert","name":"l'arbre vert","address":"96 rue principale, berrwiller, 68500, france","cuisine":"moderne"},{"lat":"45.7485295","lon":"4.8400579","url":"https://guide.michelin.com//fr/fr/auvergne-rhone-alpes/lyon/restaurant/le-kitchen-cafe","name":"le kitchen café","address":"34 rue chevreul, lyon, 69007, france","cuisine":"moderne"},{"lat":"48.86442","lon":"2.3340092","url":"https://guide.michelin.com//fr/fr/ile-de-france/paris/restaurant/mee483240","name":"mee","address":"5 rue d'argenteuil, paris, 75001, france","cuisine":"coréenne"},{"lat":"43.3030826","lon":"5.6158577","url":"https://guide.michelin.com//fr/fr/provence-alpes-cote-dazur/gmenos/restaurant/les-aromes","name":"les arômes","address":"230 avenue du 2ème-cuirassier, gémenos, 13420, france","cuisine":"du marché"},{"lat":"44.3149388","lon":"5.8225646","url":"https://guide.michelin.com//fr/fr/provence-alpes-cote-dazur/laragne-montglin/restaurant/l-araignee-gourmande","name":"l'araignée gourmande","address":"8 rue de la paix, laragne-montéglin, 05300, france","cuisine":"traditionnelle"},{"lat":"43.83118","lon":"4.782373","url":"https://guide.michelin.com//fr/fr/provence-alpes-cote-dazur/maillane/restaurant/l-oustalet-maianen","name":"l'oustalet maïanen","address":"16 avenue lamartine, maillane, 13910, france","cuisine":"provençale"},{"lat":"48.8594686","lon":"2.2985472","url":"https://guide.michelin.com//fr/fr/ile-de-france/paris/restaurant/20-eiffel","name":"20 eiffel","address":"20 rue de monttessuy, paris, 75007, france","cuisine":"traditionnelle"},{"lat":"43.7455777","lon":"7.4002839","url":"https://guide.michelin.com//fr/fr/provence-alpes-cote-dazur/la-turbie/restaurant/cafe-de-la-fontaine","name":"café de la fontaine","address":"4 avenue du général-de-gaulle, la turbie, 06320, france","cuisine":"traditionnelle"},{"lat":"44.0878794","lon":"0.7700761","url":"https://guide.michelin.com//fr/fr/occitanie/dunes/restaurant/les-templiers","name":"les templiers","address":"3 place des martyrs, dunes, 82340, france","cuisine":"moderne"},{"lat":"50.582466","lon":"2.5118117","url":"https://guide.michelin.com//fr/fr/hauts-de-france/busnes/restaurant/le-jardin-d-alice","name":"le jardin d'alice","address":"1098 route de lillers, busnes, 62350, france","cuisine":"moderne"},{"lat":"43.72915","lon":"4.34851","url":"https://guide.michelin.com//fr/fr/occitanie/gnrac/restaurant/l-instant-du-sud","name":"l'instant du sud","address":"39 grand-rue, générac, 30510, france","cuisine":"moderne"},{"lat":"42.7700821","lon":"2.8776854","url":"https://guide.michelin.com//fr/fr/occitanie/rivesaltes/restaurant/la-table-d-aime","name":"la table d'aimé","address":"4 rue francisco ferrer, rivesaltes, 66600, france","cuisine":"moderne"},{"lat":"48.8747039","lon":"2.3444157","url":"https://guide.michelin.com//fr/fr/ile-de-france/paris/restaurant/abri-soba","name":"abri soba","address":"10 rue saulnier, paris, 75009, france","cuisine":"japonaise"},{"lat":"45.459746","lon":"4.805204","url":"https://guide.michelin.com//fr/fr/auvergne-rhone-alpes/chonas-l-amballan/restaurant/le-cottage","name":"le cottage","address":"616 chemin du marais, chonas-l'amballan, 38121, france","cuisine":"traditionnelle"},{"lat":"44.44497","lon":"1.44051","url":"https://guide.michelin.com//fr/fr/occitanie/cahors/restaurant/l-o-a-la-bouche","name":"l'ô à la bouche","address":"56 allées fénelon, cahors, 46000, france","cuisine":"moderne"},{"lat":"47.6659802","lon":"-2.9786606","url":"https://guide.michelin.com//fr/fr/bretagne/auray/restaurant/le-p-tit-goustan","name":"le p'tit goustan","address":"9 place saint-sauveur, auray, 56400, france","cuisine":"poissons et fruits de mer"},{"lat":"48.8194552","lon":"7.2803398","url":"https://guide.michelin.com//fr/fr/grand-est/graufthal/restaurant/au-cheval-blanc6937","name":"au cheval blanc","address":"3 offres","cuisine":"traditionnelle"},{"lat":"48.8297661","lon":"-0.8608496","url":"https://guide.michelin.com//fr/fr/normandie/vire/restaurant/manoir-de-la-pommeraie","name":"manoir de la pommeraie","address":"l'auvère, vire, 14500, france","cuisine":"moderne"},{"lat":"47.43815","lon":"0.71374","url":"https://guide.michelin.com//fr/fr/centre-val-de-loire/paray-meslay/restaurant/l-arche-de-meslay","name":"l'arche de meslay","address":"14 rue des ailes, parçay-meslay, 37210, france","cuisine":"moderne"},{"lat":"43.1202188","lon":"6.1304632","url":"https://guide.michelin.com//fr/fr/provence-alpes-cote-dazur/hyres/restaurant/l-arum","name":"l'arum","address":"21 avenue joseph-clotis, hyères, 83400, france","cuisine":"moderne"},{"lat":"47.39675","lon":"0.69749","url":"https://guide.michelin.com//fr/fr/centre-val-de-loire/tours/restaurant/le-saint-honore","name":"le saint-honoré","address":"7 place des petites-boucheries, tours, 37000, france","cuisine":"moderne"},{"lat":"48.00909","lon":"6.60286","url":"https://guide.michelin.com//fr/fr/grand-est/remiremont/restaurant/le-clos-heurtebise","name":"le clos heurtebise","address":"13 chemin des capucins, remiremont, 88200, france","cuisine":"moderne"},{"lat":"43.6045314","lon":"2.2431667","url":"https://guide.michelin.com//fr/fr/occitanie/castres/restaurant/la-part-des-anges454760","name":"la part des anges","address":"7 rue d'empare, castres, 81100, france","cuisine":"moderne"},{"lat":"46.319886","lon":"-0.456192","url":"https://guide.michelin.com//fr/fr/nouvelle-aquitaine/niort/restaurant/le-p-tit-rouquin","name":"le p'tit rouquin","address":"92 rue de la gare, niort, 79000, france","cuisine":"traditionnelle"},{"lat":"47.7535306","lon":"-3.365115","url":"https://guide.michelin.com//fr/fr/bretagne/lorient/restaurant/le-sabayon","name":"le sabayon","address":"26 rue auguste-blanqui, lorient, 56100, france","cuisine":"moderne"},{"lat":"47.5010134","lon":"1.1673625","url":"https://guide.michelin.com//fr/fr/centre-val-de-loire/onzain/restaurant/bistrot-des-hauts-de-loire","name":"bistrot des hauts de loire","address":"79 rue gilbert-navard, onzain, 41150, france","cuisine":"traditionnelle"},{"lat":"48.8582703","lon":"2.3100155","url":"https://guide.michelin.com//fr/fr/ile-de-france/paris/restaurant/chez-les-anges","name":"chez les anges","address":"54 boulevard de la tour-maubourg, paris, 75007, france","cuisine":"classique"},{"lat":"43.7081653","lon":"-1.0499217","url":"https://guide.michelin.com//fr/fr/nouvelle-aquitaine/dax/restaurant/l-amphitryon","name":"l'amphitryon","address":"56 cours du maréchal joffre, dax, 40100, france","cuisine":"traditionnelle"},{"lat":"46.7913339","lon":"4.3889573","url":"https://guide.michelin.com//fr/fr/bourgogne-franche-comte/montcenis/restaurant/le-montcenis","name":"le montcenis","address":"place du champ-de-foire, montcenis, 71710, france","cuisine":"moderne"},{"lat":"43.8043566","lon":"0.4327748","url":"https://guide.michelin.com//fr/fr/occitanie/castra-verduzan/restaurant/le-florida","name":"le florida","address":"2 rue du lac, castéra-verduzan, 32410, france","cuisine":"traditionnelle"},{"lat":"47.2172088","lon":"-1.5555117","url":"https://guide.michelin.com//fr/fr/pays-de-la-loire/nantes/restaurant/l-instinct-gourmand","name":"l'instinct gourmand","address":"14 rue st-léonard, nantes, 44000, france","cuisine":"traditionnelle"},{"lat":"48.8772959","lon":"2.3547006","url":"https://guide.michelin.com//fr/fr/ile-de-france/paris/restaurant/mamagoto","name":"mamagoto","address":"5 rue des petits-hotels, paris, 75010, france","cuisine":"moderne"},{"lat":"48.0977773","lon":"-4.2114968","url":"https://guide.michelin.com//fr/fr/bretagne/locronan/restaurant/ar-maen-hir","name":"ar maen hir","address":"15 bis rue du prieuré, locronan, 29180, france","cuisine":"moderne"},{"lat":"48.8582229","lon":"2.3018163","url":"https://guide.michelin.com//fr/fr/ile-de-france/paris/restaurant/les-cocottes-tour-eiffel","name":"les cocottes - tour eiffel","address":"1 offre","cuisine":"traditionnelle"},{"lat":"48.7390573","lon":"0.1581694","url":"https://guide.michelin.com//fr/fr/normandie/le-pin-au-haras/restaurant/la-tete-au-loup","name":"la tête au loup","address":"le pin-au-haras, 61310, france","cuisine":"traditionnelle"},{"lat":"49.5242542","lon":"5.4564853","url":"https://guide.michelin.com//fr/fr/grand-est/couviez/restaurant/les-epices-curiens","name":"les épices curiens","address":"3b place de la gare, écouviez, 55600, france","cuisine":"moderne"},{"lat":"45.45939","lon":"3.99601","url":"https://guide.michelin.com//fr/fr/auvergne-rhone-alpes/montarcher/restaurant/le-clos-perche","name":"le clos perché","address":"le bourg, montarcher, 42380, france","cuisine":"créative"},{"lat":"48.82222","lon":"2.363179","url":"https://guide.michelin.com//fr/fr/ile-de-france/paris/restaurant/imperial-choisy","name":"impérial choisy","address":"32 avenue de choisy, paris, 75013, france","cuisine":"chinoise"},{"lat":"46.4006543","lon":"6.5912584","url":"https://guide.michelin.com//fr/fr/auvergne-rhone-alpes/vian-les-bains/restaurant/le-muratore","name":"le muratore","address":"8 place du docteur-jean-bernex, évian-les-bains, 74500, france","cuisine":"traditionnelle"},{"lat":"44.6199281","lon":"4.3873168","url":"https://guide.michelin.com//fr/fr/auvergne-rhone-alpes/aubenas/restaurant/l-aubepine","name":"l'aubépine","address":"13 boulevard jean-mathon, aubenas, 07200, france","cuisine":"moderne"},{"lat":"45.9231828","lon":"6.8698599","url":"https://guide.michelin.com//fr/fr/auvergne-rhone-alpes/chamonix-mont-blanc/restaurant/atmosphere","name":"atmosphère","address":"123 place balmat, chamonix-mont-blanc, 74400, france","cuisine":"traditionnelle"},{"lat":"50.2377902","lon":"1.6621716","url":"https://guide.michelin.com//fr/fr/hauts-de-france/favires/restaurant/la-cle-des-champs","name":"la clé des champs","address":"place des frères-caudron, favières, 80120, france","cuisine":"moderne"},{"lat":"45.440968","lon":"4.38869","url":"https://guide.michelin.com//fr/fr/auvergne-rhone-alpes/saint-tienne/restaurant/insens","name":"insens","address":"10 rue de lodi, saint-étienne, 42000, france","cuisine":"moderne"},{"lat":"48.8804947","lon":"2.3399142","url":"https://guide.michelin.com//fr/fr/ile-de-france/paris/restaurant/le-pantruche","name":"le pantruche","address":"3 rue victor-massé, paris, 75009, france","cuisine":"moderne"},{"lat":"43.91974","lon":"5.0549746","url":"https://guide.michelin.com//fr/fr/provence-alpes-cote-dazur/l-isle-sur-la-sorgue/restaurant/la-balade-des-saveurs","name":"la balade des saveurs","address":"3 quai jean-jaurès, l'isle-sur-la-sorgue, 84800, france","cuisine":"traditionnelle"},{"lat":"49.4895114","lon":"0.1111413","url":"https://guide.michelin.com//fr/fr/normandie/le-havre/restaurant/le-margote","name":"le margote","address":"50 quai michel-féré, le havre, 76600, france","cuisine":"moderne"},{"lat":"47.90071","lon":"1.90816","url":"https://guide.michelin.com//fr/fr/centre-val-de-loire/orleans/restaurant/la-dariole","name":"la dariole","address":"25 rue étienne-dolet, orléans, 45000, france","cuisine":"moderne"},{"lat":"46.0395894","lon":"4.0636404","url":"https://guide.michelin.com//fr/fr/auvergne-rhone-alpes/roanne/restaurant/le-central","name":"le central","address":"20 cours de la république, roanne, 42300, france","cuisine":"traditionnelle"},{"lat":"45.12775","lon":"5.59125","url":"https://guide.michelin.com//fr/fr/auvergne-rhone-alpes/lans-en-vercors/restaurant/le-bois-des-mures","name":"le bois des mûres","address":"815 avenue léopold-fabre, lans-en-vercors, 38250, france","cuisine":"traditionnelle"},{"lat":"47.39547","lon":"0.65635","url":"https://guide.michelin.com//fr/fr/centre-val-de-loire/saint-cyr-sur-loire/restaurant/l-atelier-d-olivier-arlot","name":"l'atelier d'olivier arlot","address":"55 quai des maisons-blanches, saint-cyr-sur-loire, 37540, france","cuisine":"moderne"},{"lat":"43.6095687","lon":"1.4984218","url":"https://guide.michelin.com//fr/fr/occitanie/balma/restaurant/l-equilibre","name":"l'équilibre","address":"10 place de la libération, balma, 31130, france","cuisine":"moderne"},{"lat":"45.2511","lon":"3.9982197","url":"https://guide.michelin.com//fr/fr/auvergne-rhone-alpes/solignac-sous-roche/restaurant/lou-pinatou","name":"lou pinatou","address":"le bourg, solignac-sous-roche, 43130, france","cuisine":"moderne"},{"lat":"43.136773","lon":"5.7572062","url":"https://guide.michelin.com//fr/fr/provence-alpes-cote-dazur/bandol/restaurant/l-esperance","name":"l'espérance","address":"21 rue du docteur-louis-marçon, bandol, 83150, france","cuisine":"moderne"},{"lat":"48.8534703","lon":"2.2952354","url":"https://guide.michelin.com//fr/fr/ile-de-france/paris/restaurant/le-casse-noix","name":"le casse noix","address":"56 rue de la fédération, paris, 75015, france","cuisine":"traditionnelle"},{"lat":"44.95041","lon":"2.683986","url":"https://guide.michelin.com//fr/fr/auvergne-rhone-alpes/pailherols/restaurant/l-auberge-des-montagnes","name":"l'auberge des montagnes","address":"le bourg, pailherols, 15800, france","cuisine":"traditionnelle"},{"lat":"44.6991732","lon":"4.8356366","url":"https://guide.michelin.com//fr/fr/auvergne-rhone-alpes/mirmande/restaurant/la-capitelle","name":"la capitelle","address":"1 rue du boulanger, mirmande, 26270, france","cuisine":"moderne"},{"lat":"43.6097359","lon":"6.4819826","url":"https://guide.michelin.com//fr/fr/provence-alpes-cote-dazur/montferrat/restaurant/le-clos-pierrepont","name":"le clos pierrepont","address":"56 route de draguignan, montferrat, 83131, france","cuisine":"moderne"},{"lat":"43.4327861","lon":"6.7369235","url":"https://guide.michelin.com//fr/fr/provence-alpes-cote-dazur/frjus/restaurant/l-amandier","name":"l'amandier","address":"19 rue marc-antoine-désaugiers, fréjus, 83600, france","cuisine":"moderne"},{"lat":"48.34151","lon":"7.4184895","url":"https://guide.michelin.com//fr/fr/grand-est/blienschwiller/restaurant/le-pressoir-de-bacchus","name":"le pressoir de bacchus","address":"50 route des vins, blienschwiller, 67650, france","cuisine":"moderne"},{"lat":"48.8500187","lon":"2.3386558","url":"https://guide.michelin.com//fr/fr/ile-de-france/paris/restaurant/la-mediterranee","name":"la méditerranée","address":"2 place de l'odéon, paris, 75006, france","cuisine":"poissons et fruits de mer"},{"lat":"48.6099687","lon":"7.0645394","url":"https://guide.michelin.com//fr/fr/grand-est/saint-quirin/restaurant/hostellerie-du-prieure","name":"hostellerie du prieuré","address":"163 rue du général-de-gaulle, saint-quirin, 57560, france","cuisine":"traditionnelle"},{"lat":"44.3449906","lon":"4.3008303","url":"https://guide.michelin.com//fr/fr/auvergne-rhone-alpes/bessas/restaurant/auberge-des-granges","name":"auberge des granges","address":"au village, bessas, 07150, france","cuisine":"moderne"},{"lat":"45.77064","lon":"4.84347","url":"https://guide.michelin.com//fr/fr/auvergne-rhone-alpes/lyon/restaurant/m-restaurant","name":"m restaurant","address":"47 avenue foch, lyon, 69006, france","cuisine":"du marché"},{"lat":"45.8621099","lon":"-1.2288191","url":"https://guide.michelin.com//fr/fr/nouvelle-aquitaine/le-grand-village-plage/restaurant/le-relais-des-salines","name":"le relais des salines","address":"port-des-salines, le grand-village-plage, 17370, france","cuisine":"poissons et fruits de mer"},{"lat":"43.9351279","lon":"0.6204403","url":"https://guide.michelin.com//fr/fr/occitanie/lectoure/restaurant/l-auberge-des-bouviers","name":"l'auberge des bouviers","address":"8 rue montebello, lectoure, 32700, france","cuisine":"traditionnelle"},{"lat":"45.5892","lon":"5.41223","url":"https://guide.michelin.com//fr/fr/auvergne-rhone-alpes/rochetoirin/restaurant/le-rochetoirin","name":"le rochetoirin","address":"route du village, rochetoirin, 38110, france","cuisine":"créative"},{"lat":"44.92986","lon":"2.446885","url":"https://guide.michelin.com//fr/fr/auvergne-rhone-alpes/aurillac/restaurant/quatre-saisons","name":"quatre saisons","address":"10 rue jean-baptiste champeil, aurillac, 15000, france","cuisine":"moderne"},{"lat":"47.63581","lon":"6.85777","url":"https://guide.michelin.com//fr/fr/bourgogne-franche-comte/belfort/restaurant/les-capucins","name":"les capucins","address":"20 faubourg de montbéliard, belfort, 90000, france","cuisine":"moderne"},{"lat":"48.43649","lon":"7.25798","url":"https://guide.michelin.com//fr/fr/grand-est/natzwiller/restaurant/auberge-metzger","name":"auberge metzger","address":"55 rue principale, natzwiller, 67130, france","cuisine":"traditionnelle"},{"lat":"48.98379","lon":"2.5506597","url":"https://guide.michelin.com//fr/fr/ile-de-france/tremblay-en-france/restaurant/la-jument-verte","name":"la jument verte","address":"43 route de roissy, tremblay-en-france, 93290, france","cuisine":"moderne"},{"lat":"45.9910681","lon":"4.7388388","url":"https://guide.michelin.com//fr/fr/auvergne-rhone-alpes/villefranche-sur-sane/restaurant/la-ferme-du-poulet","name":"la ferme du poulet","address":"180 rue georges mangin, villefranche-sur-saône, 69400, france","cuisine":"traditionnelle"},{"lat":"48.9066307","lon":"7.6590408","url":"https://guide.michelin.com//fr/fr/grand-est/gundershoffen/restaurant/le-cygne","name":"le cygne","address":"35 grande-rue, gundershoffen, 67110, france","cuisine":"moderne"},{"lat":"47.2240167","lon":"4.9696593","url":"https://guide.michelin.com//fr/fr/bourgogne-franche-comte/gevrey-chambertin/restaurant/bistrot-lucien","name":"bistrot lucien","address":"6 rue du chambertin, gevrey-chambertin, 21220, france","cuisine":"traditionnelle"},{"lat":"44.486043","lon":"1.8435946","url":"https://guide.michelin.com//fr/fr/occitanie/cajarc/restaurant/jeu-de-quilles","name":"jeu de quilles","address":"7 boulevard tour-de-ville, cajarc, 46160, france","cuisine":"moderne"},{"lat":"49.2756591","lon":"-0.7020467","url":"https://guide.michelin.com//fr/fr/normandie/bayeux/restaurant/au-ptit-bistrot","name":"au ptit bistrot","address":"31 rue larcher, bayeux, 14400, france","cuisine":"moderne"},{"lat":"43.92891","lon":"4.945485","url":"https://guide.michelin.com//fr/fr/provence-alpes-cote-dazur/chteauneuf-de-gadagne/restaurant/la-maison-de-celou","name":"la maison de celou","address":"impasse de l'alouette - portail du thor, châteauneuf-de-gadagne, 84470, france","cuisine":"moderne"},{"lat":"48.6110364","lon":"-4.2987684","url":"https://guide.michelin.com//fr/fr/bretagne/plouider/restaurant/le-comptoir-de-la-butte","name":"le comptoir de la butte","address":"12 rue de la mer, plouider, 29260, france","cuisine":"traditionnelle"},{"lat":"49.1846061","lon":"-0.3648739","url":"https://guide.michelin.com//fr/fr/normandie/caen/restaurant/le-dauphin10467","name":"le dauphin","address":"29 rue gemare, caen, 14000, france","cuisine":"moderne"},{"lat":"50.9569","lon":"1.84954","url":"https://guide.michelin.com//fr/fr/hauts-de-france/calais/restaurant/histoire-ancienne","name":"histoire ancienne","address":"20 rue royale, calais, 62100, france","cuisine":"traditionnelle"},{"lat":"46.9700336","lon":"-0.2073584","url":"https://guide.michelin.com//fr/fr/nouvelle-aquitaine/saint-jean-de-thouars/restaurant/hotellerie-st-jean","name":"hôtellerie st-jean","address":"25 route de parthenay, saint-jean-de-thouars, 79100, france","cuisine":"classique"},{"lat":"44.89993","lon":"6.64351","url":"https://guide.michelin.com//fr/fr/provence-alpes-cote-dazur/brianon/restaurant/au-plaisir-ambre","name":"au plaisir ambré","address":"26 grande-rue, briançon, 05100, france","cuisine":"moderne"},{"lat":"46.1560923","lon":"-1.1636978","url":"https://guide.michelin.com//fr/fr/nouvelle-aquitaine/la-rochelle/restaurant/le-mail","name":"le mail","address":"16 allée du mail, la rochelle, 17000, france","cuisine":"moderne"},{"lat":"45.945435","lon":"4.725821","url":"https://guide.michelin.com//fr/fr/auvergne-rhone-alpes/anse/restaurant/au-colombier","name":"au colombier","address":"126 allée colombier, anse, 69480, france","cuisine":"moderne"},{"lat":"44.9234713","lon":"-0.2065061","url":"https://guide.michelin.com//fr/fr/nouvelle-aquitaine/pomerol/restaurant/la-table-de-catusseau","name":"la table de catusseau","address":"86 rue de catusseau, pomerol, 33500, france","cuisine":"moderne"},{"lat":"45.1537807","lon":"1.5329156","url":"https://guide.michelin.com//fr/fr/nouvelle-aquitaine/brive-la-gaillarde/restaurant/en-cuisine","name":"en cuisine","address":"39 avenue edouard-herriot, brive-la-gaillarde, 19100, france","cuisine":"moderne"},{"lat":"44.6633924","lon":"-0.3524005","url":"https://guide.michelin.com//fr/fr/nouvelle-aquitaine/rions/restaurant/le-chaudron-d-anna","name":"le chaudron d'anna","address":"4-5 place cazeaux-cazalet, rions, 33410, france","cuisine":"traditionnelle"},{"lat":"43.12354","lon":"5.9320393","url":"https://guide.michelin.com//fr/fr/provence-alpes-cote-dazur/toulon/restaurant/carre-2-vigne","name":"carré 2 vigne","address":"14 rue de pomet, toulon, 83000, france","cuisine":"moderne"},{"lat":"47.3256091","lon":"5.0343065","url":"https://guide.michelin.com//fr/fr/bourgogne-franche-comte/dijon/restaurant/l-essentiel528709","name":"l'essentiel","address":"12 rue audra, dijon, 21000, france","cuisine":"moderne"},{"lat":"45.7786827","lon":"4.834654","url":"https://guide.michelin.com//fr/fr/auvergne-rhone-alpes/lyon/restaurant/le-canut-et-les-gones","name":"le canut et les gones","address":"29 rue belfort, lyon, 69004, france","cuisine":"moderne"},{"lat":"44.825863","lon":"1.182383","url":"https://guide.michelin.com//fr/fr/nouvelle-aquitaine/la-roque-gageac/restaurant/la-belle-etoile","name":"la belle étoile","address":"le bourg, la roque-gageac, 24250, france","cuisine":"traditionnelle"},{"lat":"43.29721","lon":"5.36586","url":"https://guide.michelin.com//fr/fr/provence-alpes-cote-dazur/marseille/restaurant/schilling472328","name":"schilling","address":"37 rue caisserie, marseille, 13002, france","cuisine":"moderne"},{"lat":"43.6324663","lon":"2.2726178","url":"https://guide.michelin.com//fr/fr/occitanie/castres/restaurant/les-mets-d-adelaide","name":"les mets d'adélaïde","address":"28 avenue georges-alquier, castres, 81100, france","cuisine":"moderne"},{"lat":"48.07412","lon":"-2.75459","url":"https://guide.michelin.com//fr/fr/bretagne/rohan/restaurant/l-eau-d-oust","name":"l'eau d'oust","address":"6 rue du lac, rohan, 56580, france","cuisine":"moderne"},{"lat":"43.0891229","lon":"2.6196977","url":"https://guide.michelin.com//fr/fr/occitanie/lagrasse/restaurant/le-bastion","name":"le bastion","address":"50 boulevard de la promenade, lagrasse, 11220, france","cuisine":"moderne"},{"lat":"45.376698","lon":"6.5065484","url":"https://guide.michelin.com//fr/fr/auvergne-rhone-alpes/saint-martin-de-belleville/restaurant/simple-et-meilleur","name":"simple et meilleur","address":"place notre-dame, quartier de caseblanche, saint-martin-de-belleville, 73440, france","cuisine":"savoyarde"},{"lat":"48.0276111","lon":"7.079408","url":"https://guide.michelin.com//fr/fr/grand-est/muhlbach-sur-munster/restaurant/perle-des-vosges","name":"perle des vosges","address":"22 route gaschney, muhlbach-sur-munster, 68380, france","cuisine":"moderne"},{"lat":"48.8461702","lon":"2.3080778","url":"https://guide.michelin.com//fr/fr/ile-de-france/paris/restaurant/le-radis-beurre","name":"le radis beurre","address":"51 boulevard garibaldi, paris, 75015, france","cuisine":"traditionnelle"},{"lat":"43.94747","lon":"4.80645","url":"https://guide.michelin.com//fr/fr/provence-alpes-cote-dazur/avignon/restaurant/italie-la-bas","name":"italie là-bas","address":"23 rue de la bancasse, avignon, 84000, france","cuisine":"italienne"},{"lat":"49.2406241","lon":"1.2006923","url":"https://guide.michelin.com//fr/fr/normandie/saint-tienne-du-vauvray/restaurant/la-ferme-de-la-haute-cremonville","name":"la ferme de la haute crémonville","address":"route de crémonville, saint-étienne-du-vauvray, 27430, france","cuisine":"traditionnelle"},{"lat":"43.611336","lon":"3.87512","url":"https://guide.michelin.com//fr/fr/occitanie/montpellier/restaurant/anga","name":"anga","address":"19 rue du palais-des-guilhem, montpellier, 34000, france","cuisine":"moderne"},{"lat":"45.77898","lon":"3.080394","url":"https://guide.michelin.com//fr/fr/auvergne-rhone-alpes/clermont-ferrand/restaurant/l-ecureuil","name":"l'écureuil","address":"18 rue st-adjutor, clermont-ferrand, 63000, france","cuisine":"moderne"},{"lat":"48.8593481","lon":"2.4053637","url":"https://guide.michelin.com//fr/fr/ile-de-france/paris/restaurant/sadarnac","name":"sadarnac","address":"1 offre","cuisine":"moderne"},{"lat":"44.9787356","lon":"1.8383361","url":"https://guide.michelin.com//fr/fr/nouvelle-aquitaine/beaulieu-sur-dordogne/restaurant/le-turenne","name":"le turenne","address":"boulevard saint-rodolphe-de-turenne, beaulieu-sur-dordogne, 19120, france","cuisine":"moderne"},{"lat":"49.0449982","lon":"3.9540074","url":"https://guide.michelin.com//fr/fr/grand-est/pernay/restaurant/cook-in","name":"cook'in","address":"18 rue porte-lucas, épernay, 51200, france","cuisine":"influences asiatiques"},{"lat":"44.39009","lon":"1.49052","url":"https://guide.michelin.com//fr/fr/occitanie/cieurac/restaurant/la-table-de-haute-serre","name":"la table de haute-serre","address":"château de haute-serre, cieurac, 46230, france","cuisine":"moderne"},{"lat":"45.458736","lon":"3.184899","url":"https://guide.michelin.com//fr/fr/auvergne-rhone-alpes/boudes/restaurant/le-boudes-la-vigne","name":"le boudes la vigne","address":"place de la mairie, boudes, 63340, france","cuisine":"moderne"},{"lat":"47.215718","lon":"4.7241787","url":"https://guide.michelin.com//fr/fr/bourgogne-franche-comte/la-bussire-sur-ouche/restaurant/le-bistrot-des-moines","name":"le bistrot des moines","address":"route départementale 33, la bussière-sur-ouche, 21360, france","cuisine":"traditionnelle"},{"lat":"48.8876647","lon":"2.3182189","url":"https://guide.michelin.com//fr/fr/ile-de-france/paris/restaurant/comme-chez-maman","name":"comme chez maman","address":"5 rue des moines, paris, 75017, france","cuisine":"moderne"},{"lat":"48.8793235","lon":"2.3346319","url":"https://guide.michelin.com//fr/fr/ile-de-france/paris/restaurant/les-canailles-pigalle","name":"les canailles pigalle","address":"25 rue la bruyère, paris, 75009, france","cuisine":"moderne"},{"lat":"47.7486709","lon":"-3.3578633","url":"https://guide.michelin.com//fr/fr/bretagne/lorient/restaurant/le-tire-bouchon","name":"le tire bouchon","address":"45 rue jules-le-grand, lorient, 56100, france","cuisine":"traditionnelle"},{"lat":"48.8582083","lon":"2.3025758","url":"https://guide.michelin.com//fr/fr/ile-de-france/paris/restaurant/pottoka","name":"pottoka","address":"4 rue de l'exposition, paris, 75007, france","cuisine":"basque"},{"lat":"45.77926","lon":"3.08993","url":"https://guide.michelin.com//fr/fr/auvergne-rhone-alpes/clermont-ferrand/restaurant/smorrebrod","name":"smørrebrød","address":"10-12 rue des archers, clermont-ferrand, 63000, france","cuisine":"moderne"},{"lat":"43.68402","lon":"3.99109","url":"https://guide.michelin.com//fr/fr/occitanie/fr-castries/restaurant/disini","name":"disini","address":"1 rue des carrières, castries, 34160, france","cuisine":"moderne"},{"lat":"48.1905207","lon":"7.3251259","url":"https://guide.michelin.com//fr/fr/grand-est/ribeauvill/restaurant/au-relais-des-menetriers","name":"au relais des ménétriers","address":"10 avenue du général-de-gaulle, ribeauvillé, 68150, france","cuisine":"moderne"},{"lat":"47.3298314","lon":"2.839141","url":"https://guide.michelin.com//fr/fr/centre-val-de-loire/sancerre/restaurant/la-pomme-d-or","name":"la pomme d'or","address":"rue de la panneterie, sancerre, 18300, france","cuisine":"traditionnelle"},{"lat":"43.25776","lon":"-1.23259","url":"https://guide.michelin.com//fr/fr/nouvelle-aquitaine/irissarry/restaurant/art-zain","name":"art'zain","address":"le bourg, irissarry, 64780, france","cuisine":"du marché"},{"lat":"47.7119734","lon":"5.8879472","url":"https://guide.michelin.com//fr/fr/bourgogne-franche-comte/combeaufontaine/restaurant/le-balcon","name":"le balcon","address":"2 grande-rue, combeaufontaine, 70120, france","cuisine":"traditionnelle"},{"lat":"48.71084","lon":"7.80047","url":"https://guide.michelin.com//fr/fr/grand-est/weyersheim/restaurant/auberge-du-pont-de-la-zorn","name":"auberge du pont de la zorn","address":"2 rue de la république, weyersheim, 67720, france","cuisine":"alsacienne"},{"lat":"48.746774","lon":"1.4162886","url":"https://guide.michelin.com//fr/fr/centre-val-de-loire/cherisy/restaurant/le-vallon-de-cherisy","name":"le vallon de chérisy","address":"12 route de paris, cherisy, 28500, france","cuisine":"traditionnelle"},{"lat":"48.8361274","lon":"2.2913415","url":"https://guide.michelin.com//fr/fr/ile-de-france/paris/restaurant/biscotte","name":"biscotte","address":"22 rue desnouettes, paris, 75015, france","cuisine":"moderne"},{"lat":"47.371565","lon":"-2.3275021","url":"https://guide.michelin.com//fr/fr/pays-de-la-loire/saint-lyphard/restaurant/auberge-le-nezil","name":"auberge le nézil","address":"route de st-nazaire, saint-lyphard, 44410, france","cuisine":"moderne"}]